stop_id,stop_name,stop_lat,stop_lon,zone_id,location_type,parent_station,stop_code,stop_desc,stop_url,stop_timezone,wheelchair_boarding,platform_code
S0702000001,若松駅前,37.5074528191546,139.931067801282,0,1,,,,,,,
S070200000100100,若松駅前,37.5074701814409,139.931241397177,Z000000,0,S0702000001,,,,,,
S070200000100200,若松駅前,37.5074788598552,139.9311719581,Z000000,0,S0702000001,,,,,,
S070200000100300,若松駅前,37.5074788598552,139.9311719581,Z000000,0,S0702000001,,,,,,
S070200000100400,若松駅前,37.5074962166841,139.931033079946,Z000000,0,S0702000001,,,,,,
S070200000100101,若松駅前,37.5074701814409,139.931241397177,Z000001,0,S0702000001,,,,,,
S070200000100201,若松駅前,37.5074788598552,139.9311719581,Z000001,0,S0702000001,,,,,,
S070200000100401,若松駅前,37.5074962166841,139.931033079946,Z000001,0,S0702000001,,,,,,
S0702000002,一中前（会津若松市立）,37.5062551112548,139.935685528491,0,1,,,,,,,
S070200000200000,一中前（会津若松市立）,37.5062551112548,139.935685528491,Z000010,0,S0702000002,,,,,,
S070200000200001,一中前（会津若松市立）,37.5062551112548,139.935685528491,Z000011,0,S0702000002,,,,,,
S0702000003,蚕養神社前,37.5054740224273,139.940129639822,0,1,,,,,,,
S070200000300000,蚕養神社前,37.5054740224273,139.940129639822,Z000020,0,S0702000003,,,,,,
S070200000300001,蚕養神社前,37.5054740224273,139.940129639822,Z000021,0,S0702000003,,,,,,
S0702000004,会津短大南口,37.5047450040861,139.944157116691,0,1,,,,,,,
S070200000400000,会津短大南口,37.5047450040861,139.944157116691,Z000030,0,S0702000004,,,,,,
S0702000005,飯盛山下,37.5041896358953,139.951482922751,0,1,,,,,,,
S070200000500000,飯盛山下,37.5041896358953,139.951482922751,Z000040,0,S0702000005,,,,,,
S0702000006,飯盛山団地,37.5007872093104,139.950753973293,0,1,,,,,,,
S070200000600000,飯盛山団地,37.5007872093104,139.950753973293,Z000050,0,S0702000006,,,,,,
S0702000007,和田,37.4978882004951,139.949990281318,0,1,,,,,,,
S070200000700000,和田,37.4978882004951,139.949990281318,Z000060,0,S0702000007,,,,,,
S0702000008,慶山,37.494147273908,139.949573821495,0,1,,,,,,,
S070200000800000,慶山,37.494147273908,139.949573821495,Z000070,0,S0702000008,,,,,,
S0702000009,石山,37.4895210380839,139.94988650855,0,1,,,,,,,
S070200000900000,石山,37.4895210380839,139.94988650855,Z000080,0,S0702000009,,,,,,
S0702000010,奴郎ヶ前,37.4875941723735,139.950546264707,0,1,,,,,,,
S070200001000000,奴郎ヶ前,37.4875941723735,139.950546264707,Z000090,0,S0702000010,,,,,,
S070200001000001,奴郎ヶ前,37.4875941723735,139.950546264707,Z000091,0,S0702000010,,,,,,
S0702000011,会津武家屋敷前,37.485051085879,139.953080893531,0,1,,,,,,,
S070200001100000,会津武家屋敷前,37.485051085879,139.953080893531,Z000100,0,S0702000011,,,,,,
S070200001100001,会津武家屋敷前,37.485051085879,139.953080893531,Z000101,0,S0702000011,,,,,,
S0702000012,院内,37.4831936893246,139.955580771446,0,1,,,,,,,
S070200001200000,院内,37.4831936893246,139.955580771446,Z000110,0,S0702000012,,,,,,
S070200001200001,院内,37.4831936893246,139.955580771446,Z000111,0,S0702000012,,,,,,
S0702000013,東山温泉入口,37.4814751698369,139.95825423966,0,1,,,,,,,
S070200001300000,東山温泉入口,37.4814751698369,139.95825423966,Z000120,0,S0702000013,,,,,,
S0702000014,東山温泉駅,37.478680368697,139.960476406024,0,1,,,,,,,
S070200001400000,東山温泉駅,37.478680368697,139.960476406024,Z000130,0,S0702000014,,,,,,
S0702000015,東山温泉入口［瀧の湯前］,37.4804510041502,139.959990253756,0,1,,,,,,,
S070200001500000,東山温泉入口［瀧の湯前］,37.4804510041502,139.959990253756,Z000140,0,S0702000015,,,,,,
S0702000016,慶山入口,37.4902761292643,139.947803313455,0,1,,,,,,,
S070200001600000,慶山入口,37.4902761292643,139.947803313455,Z000150,0,S0702000016,,,,,,
S0702000017,会津若松商工会議所前,37.492237680132,139.945233992068,0,1,,,,,,,
S070200001700000,会津若松商工会議所前,37.492237680132,139.945233992068,Z000160,0,S0702000017,,,,,,
S0702000018,徒の町,37.4920032404529,139.940095540718,0,1,,,,,,,
S070200001800000,徒の町,37.4920032404529,139.940095540718,Z000170,0,S0702000018,,,,,,
S0702000019,小田垣,37.4898072875021,139.93967900976,0,1,,,,,,,
S070200001900000,小田垣,37.4898072875021,139.93967900976,Z000180,0,S0702000019,,,,,,
S0702000020,会津風雅堂前,37.4868128070327,139.939158357553,0,1,,,,,,,
S070200002000000,会津風雅堂前,37.4868128070327,139.939158357553,Z000190,0,S0702000020,,,,,,
S0702000021,文化センター前,37.4862572350951,139.934818465781,0,1,,,,,,,
S070200002100000,文化センター前,37.4862572350951,139.934818465781,Z000200,0,S0702000021,,,,,,
S0702000022,鶴ヶ城三の丸口,37.488418442856,139.933707347431,0,1,,,,,,,
S070200002200000,鶴ヶ城三の丸口,37.488418442856,139.933707347431,Z000210,0,S0702000022,,,,,,
S0702000023,鶴ヶ城北口,37.4899633952687,139.932492099438,0,1,,,,,,,
S070200002300000,鶴ヶ城北口,37.4899633952687,139.932492099438,Z000220,0,S0702000023,,,,,,
S0702000024,鶴ヶ城入口,37.4901282869613,139.931276914987,0,1,,,,,,,
S070200002400100,鶴ヶ城入口,37.4900762098048,139.931311636725,Z000230,0,S0702000024,,,,,,
S070200002400200,鶴ヶ城入口,37.4901890437452,139.931242192851,Z000230,0,S0702000024,,,,,,
S0702000025,北出丸大通り,37.4919336384977,139.930651883765,0,1,,,,,,,
S070200002500000,北出丸大通り,37.4919336384977,139.930651883765,Z000240,0,S0702000025,,,,,,
S0702000026,会津若松市役所前,37.4951190495414,139.929957350323,0,1,,,,,,,
S070200002600000,会津若松市役所前,37.4951190495414,139.929957350323,Z000250,0,S0702000026,,,,,,
S0702000027,栄町中三丁目,37.4956050298323,139.925443813902,0,1,,,,,,,
S070200002700000,栄町中三丁目,37.4956050298323,139.925443813902,Z000260,0,S0702000027,,,,,,
S070200002700001,栄町中三丁目,37.4956050298323,139.925443813902,Z000261,0,S0702000027,,,,,,
S0702000028,老町,37.497384332785,139.924263274457,0,1,,,,,,,
S070200002800000,老町,37.497384332785,139.924263274457,Z000270,0,S0702000028,,,,,,
S0702000029,阿弥陀寺東,37.5003440050003,139.919645466124,0,1,,,,,,,
S070200002900000,阿弥陀寺東,37.5003440050003,139.919645466124,Z000280,0,S0702000029,,,,,,
S0702000030,七日町駅前,37.5008647795986,139.919471845452,0,1,,,,,,,
S070200003000000,七日町駅前,37.5008647795986,139.919471845452,Z000290,0,S0702000030,,,,,,
S0702000031,七日町中央,37.4999534757463,139.922735505259,0,1,,,,,,,
S070200003100000,七日町中央,37.4999534757463,139.922735505259,Z000300,0,S0702000031,,,,,,
S0702000032,七日町白木屋前,37.4989119859758,139.926485241804,0,1,,,,,,,
S070200003200000,七日町白木屋前,37.4989119859758,139.926485241804,Z000310,0,S0702000032,,,,,,
S0702000033,郵便局前（会津若松市）,37.4991029802208,139.928915586727,0,1,,,,,,,
S070200003300000,郵便局前（会津若松市）,37.4991029802208,139.928915586727,Z000320,0,S0702000033,,,,,,
S070200003300001,郵便局前（会津若松市）,37.4991029802208,139.928915586727,Z000321,0,S0702000033,,,,,,
S0702000034,大町一丁目,37.5015853729959,139.930026491272,0,1,,,,,,,
S070200003400000,大町一丁目,37.5015853729959,139.930026491272,Z000330,0,S0702000034,,,,,,
S070200003400001,大町一丁目,37.5015853729959,139.930026491272,Z000331,0,S0702000034,,,,,,
S0702000035,大町中央公園,37.5034601864116,139.930824949743,0,1,,,,,,,
S070200003500000,大町中央公園,37.5034601864116,139.930824949743,Z000340,0,S0702000035,,,,,,
S070200003500001,大町中央公園,37.5034601864116,139.930824949743,Z000341,0,S0702000035,,,,,,
S0702000036,大町二丁目,37.5055172738171,139.931727557838,0,1,,,,,,,
S070200003600000,大町二丁目,37.5055172738171,139.931727557838,Z000350,0,S0702000036,,,,,,
S070200003600001,大町二丁目,37.5055172738171,139.931727557838,Z000351,0,S0702000036,,,,,,
S0702000037,御薬園西口,37.4927583989425,139.941866192227,0,1,,,,,,,
S070200003700000,御薬園西口,37.4927583989425,139.941866192227,Z000360,0,S0702000037,,,,,,
S0702000038,花春町,37.4899982659811,139.941206651875,0,1,,,,,,,
S070200003800000,花春町,37.4899982659811,139.941206651875,Z000370,0,S0702000038,,,,,,
S0702000039,小田垣局前,37.4893298837523,139.938290258188,0,1,,,,,,,
S070200003900000,小田垣局前,37.4893298837523,139.938290258188,Z000380,0,S0702000039,,,,,,
S0702000040,鶴ヶ城北口・県立博物館前,37.4899633958751,139.932526818776,0,1,,,,,,,
S070200004000000,鶴ヶ城北口・県立博物館前,37.4899633958751,139.932526818776,Z000390,0,S0702000040,,,,,,
S0702000041,合同庁舎前（会津若松市）,37.4904407050284,139.928499353498,0,1,,,,,,,
S070200004100000,合同庁舎前（会津若松市）,37.4904407050284,139.928499353498,Z000400,0,S0702000041,,,,,,
S0702000042,三の丁,37.4918381037791,139.927284112299,0,1,,,,,,,
S070200004200000,三の丁,37.4918381037791,139.927284112299,Z000410,0,S0702000042,,,,,,
S070200004200001,三の丁,37.4918381037791,139.927284112299,Z000411,0,S0702000042,,,,,,
S0702000043,神明通り,37.4964556818062,139.92822132184,0,1,,,,,,,
S070200004300100,神明通り,37.4970545766873,139.928256013604,Z000420,0,S0702000043,,,,,,
S070200004300200,神明通り,37.4960998170922,139.928221338225,Z000420,0,S0702000043,,,,,,
S070200004300101,神明通り,37.4970545766873,139.928256013604,Z000421,0,S0702000043,,,,,,
S0702000044,町方伝承館前,37.5019238608703,139.929019614862,0,1,,,,,,,
S070200004400000,町方伝承館前,37.5019238608703,139.929019614862,Z000430,0,S0702000044,,,,,,
S0702000045,大町二之町,37.499875453092,139.928117006367,0,1,,,,,,,
S070200004500000,大町二之町,37.499875453092,139.928117006367,Z000440,0,S0702000045,,,,,,
S0702000046,大和町,37.4983738023994,139.923811877496,0,1,,,,,,,
S070200004600000,大和町,37.4983738023994,139.923811877496,Z000450,0,S0702000046,,,,,,
S0702000047,北小路田中稲荷神社前,37.4982176067064,139.925964483693,0,1,,,,,,,
S070200004700000,北小路田中稲荷神社前,37.4982176067064,139.925964483693,Z000460,0,S0702000047,,,,,,
S0702000048,野口英世青春館前,37.4976360923032,139.927144967988,0,1,,,,,,,
S070200004800000,野口英世青春館前,37.4976360923032,139.927144967988,Z000470,0,S0702000048,,,,,,
S0702000049,野口英世青春広場前,37.4965511322367,139.926763105215,0,1,,,,,,,
S070200004900000,野口英世青春広場前,37.4965511322367,139.926763105215,Z000480,0,S0702000049,,,,,,
S0702000050,御薬園,37.4917255542351,139.943636926061,0,1,,,,,,,
S070200005000000,御薬園,37.4917255542351,139.943636926061,Z000490,0,S0702000050,,,,,,
S0702000051,市役所西口（会津若松）,37.4942944467578,139.927770069945,0,1,,,,,,,
S070200005100000,市役所西口（会津若松）,37.4942944467578,139.927770069945,Z000500,0,S0702000051,,,,,,
S0702000052,御薬園入口,37.4928278808327,139.944435420101,0,1,,,,,,,
S070200005200000,御薬園入口,37.4928278808327,139.944435420101,Z000510,0,S0702000052,,,,,,
S0702000053,西若松駅東口,37.4856927136874,139.91502846865,0,1,,,,,,,
S070200005300100,西若松駅東口,37.4859270599827,139.914820141827,Z000520,0,S0702000053,,,,,,
S070200005300200,西若松駅東口,37.4856927149002,139.915097907328,Z000520,0,S0702000053,,,,,,
S070200005300300,西若松駅東口,37.4855104427296,139.91509791572,Z000520,0,S0702000053,,,,,,
S070200005300201,西若松駅東口,37.4856927149002,139.915097907328,Z000521,0,S0702000053,,,,,,
S0702000054,湯川橋,37.486100699218,139.917493522921,0,1,,,,,,,
S070200005400000,湯川橋,37.486100699218,139.917493522921,Z000530,0,S0702000054,,,,,,
S0702000055,湯川町,37.4867430310439,139.919750250369,0,1,,,,,,,
S070200005500000,湯川町,37.4867430310439,139.919750250369,Z000540,0,S0702000055,,,,,,
S070200005500001,湯川町,37.4867430310439,139.919750250369,Z000541,0,S0702000055,,,,,,
S0702000056,竹田病院前,37.4905707933178,139.922423463216,0,1,,,,,,,
S070200005600000,竹田病院前,37.4905707933178,139.922423463216,Z000550,0,S0702000056,,,,,,
S070200005600001,竹田病院前,37.4905707933178,139.922423463216,Z000551,0,S0702000056,,,,,,
S0702000057,桂林寺町,37.4937735799883,139.922666351122,0,1,,,,,,,
S070200005700000,桂林寺町,37.4937735799883,139.922666351122,Z000560,0,S0702000057,,,,,,
S070200005700001,桂林寺町,37.4937735799883,139.922666351122,Z000561,0,S0702000057,,,,,,
S0702000058,七日町角（東まわり）,37.4989119599011,139.924992310236,0,1,,,,,,,
S070200005800000,七日町角（東まわり）,37.4989119599011,139.924992310236,Z000570,0,S0702000058,,,,,,
S0702000059,鶴ヶ城体育館,37.4854066461858,139.935651769076,0,1,,,,,,,
S070200005900000,鶴ヶ城体育館,37.4854066461858,139.935651769076,Z000580,0,S0702000059,,,,,,
S0702000060,鶴ヶ城南口,37.4841827623606,139.932422926918,0,1,,,,,,,
S070200006000000,鶴ヶ城南口,37.4841827623606,139.932422926918,Z000590,0,S0702000060,,,,,,
S0702000061,会津高校東,37.4798949998575,139.930895473431,0,1,,,,,,,
S070200006100000,会津高校東,37.4798949998575,139.930895473431,Z000600,0,S0702000061,,,,,,
S0702000062,城南消防署前,37.4778639586102,139.930409496203,0,1,,,,,,,
S070200006200000,城南消防署前,37.4778639586102,139.930409496203,Z000610,0,S0702000062,,,,,,
S0702000063,年貢町東,37.4784540980656,139.926104271018,0,1,,,,,,,
S070200006300000,年貢町東,37.4784540980656,139.926104271018,Z000620,0,S0702000063,,,,,,
S0702000064,年貢町西,37.4787057739021,139.924194695796,0,1,,,,,,,
S070200006400000,年貢町西,37.4787057739021,139.924194695796,Z000630,0,S0702000064,,,,,,
S0702000065,年貢町団地入口,37.4791136593786,139.920931059167,0,1,,,,,,,
S070200006500000,年貢町団地入口,37.4791136593786,139.920931059167,Z000640,0,S0702000065,,,,,,
S0702000066,対馬館団地入口,37.4792785146878,139.917632714389,0,1,,,,,,,
S070200006600000,対馬館団地入口,37.4792785146878,139.917632714389,Z000650,0,S0702000066,,,,,,
S0702000067,対馬館団地,37.4814050009082,139.916348000944,0,1,,,,,,,
S070200006700000,対馬館団地,37.4814050009082,139.916348000944,Z000660,0,S0702000067,,,,,,
S0702000068,栄町南,37.4949020873624,139.931589169237,0,1,,,,,,,
S070200006800000,栄町南,37.4949020873624,139.931589169237,Z000670,0,S0702000068,,,,,,
S0702000069,穴澤病院前,37.4944160670497,139.933811229299,0,1,,,,,,,
S070200006900000,穴澤病院前,37.4944160670497,139.933811229299,Z000680,0,S0702000069,,,,,,
S0702000070,竪三日町,37.4956312542689,139.936067930371,0,1,,,,,,,
S070200007000000,竪三日町,37.4956312542689,139.936067930371,Z000690,0,S0702000070,,,,,,
S0702000071,千石町,37.4946678799302,139.939748224642,0,1,,,,,,,
S070200007100000,千石町,37.4946678799302,139.939748224642,Z000700,0,S0702000071,,,,,,
S0702000072,小田橋,37.4867607498868,139.940338817468,0,1,,,,,,,
S070200007200000,小田橋,37.4867607498868,139.940338817468,Z000710,0,S0702000072,,,,,,
S0702000073,花見ヶ丘,37.4845387392565,139.938845988208,0,1,,,,,,,
S070200007300000,花見ヶ丘,37.4845387392565,139.938845988208,Z000720,0,S0702000073,,,,,,
S0702000074,建福寺前,37.4818306634409,139.937005987938,0,1,,,,,,,
S070200007400000,建福寺前,37.4818306634409,139.937005987938,Z000730,0,S0702000074,,,,,,
S0702000075,青木（会津若松市）,37.4786538810877,139.934784096523,0,1,,,,,,,
S070200007500000,青木（会津若松市）,37.4786538810877,139.934784096523,Z000740,0,S0702000075,,,,,,
S0702000076,会津高校入口,37.4819433021241,139.925756916977,0,1,,,,,,,
S070200007600000,会津高校入口,37.4819433021241,139.925756916977,Z000750,0,S0702000076,,,,,,
S070200007600001,会津高校入口,37.4819433021241,139.925756916977,Z000751,0,S0702000076,,,,,,
S0702000077,米代二丁目,37.4861355723558,139.926346952713,0,1,,,,,,,
S070200007700000,米代二丁目,37.4861355723558,139.926346952713,Z000760,0,S0702000077,,,,,,
S070200007700001,米代二丁目,37.4861355723558,139.926346952713,Z000761,0,S0702000077,,,,,,
S0702000078,鶴ヶ城西口,37.4896768693371,139.926867579743,0,1,,,,,,,
S070200007800000,鶴ヶ城西口,37.4896768693371,139.926867579743,Z000770,0,S0702000078,,,,,,
S070200007800001,鶴ヶ城西口,37.4896768693371,139.926867579743,Z000771,0,S0702000078,,,,,,
S0702000079,甲賀町,37.4971674846071,139.932422329063,0,1,,,,,,,
S070200007900000,甲賀町,37.4971674846071,139.932422329063,Z000780,0,S0702000079,,,,,,
S0702000080,千石中央,37.4949890728275,139.942421598942,0,1,,,,,,,
S070200008000000,千石中央,37.4949890728275,139.942421598942,Z000790,0,S0702000080,,,,,,
S0702000081,東千石,37.49743676286,139.944435207894,0,1,,,,,,,
S070200008100000,東千石,37.49743676286,139.944435207894,Z000800,0,S0702000081,,,,,,
S0702000082,東部公園南,37.4998150128432,139.946275223349,0,1,,,,,,,
S070200008200000,東部公園南,37.4998150128432,139.946275223349,Z000810,0,S0702000082,,,,,,
S0702000083,八角町,37.5034865060512,139.946900002401,0,1,,,,,,,
S070200008300000,八角町,37.5034865060512,139.946900002401,Z000820,0,S0702000083,,,,,,
S0702000084,千石ニュータウン,37.4970635122106,139.942907574172,0,1,,,,,,,
S070200008400000,千石ニュータウン,37.4970635122106,139.942907574172,Z000830,0,S0702000084,,,,,,
S0702000085,南花畑,37.4859011120595,139.920028043843,0,1,,,,,,,
S070200008500000,南花畑,37.4859011120595,139.920028043843,Z000850,0,S0702000085,,,,,,
S070200008500001,南花畑,37.4859011120595,139.920028043843,Z000851,0,S0702000085,,,,,,
S0702000086,県営住宅前,37.485649451989,139.922840321874,0,1,,,,,,,
S070200008600000,県営住宅前,37.485649451989,139.922840321874,Z000860,0,S0702000086,,,,,,
S070200008600001,県営住宅前,37.485649451989,139.922840321874,Z000861,0,S0702000086,,,,,,
S0702000087,年貢町,37.4775340363619,139.924889136522,0,1,,,,,,,
S070200008700000,年貢町,37.4775340363619,139.924889136522,Z000870,0,S0702000087,,,,,,
S070200008700001,年貢町,37.4775340363619,139.924889136522,Z000871,0,S0702000087,,,,,,
S0702000088,新屋,37.4721439690912,139.923813085194,0,1,,,,,,,
S070200008800000,新屋,37.4721439690912,139.923813085194,Z000880,0,S0702000088,,,,,,
S070200008800001,新屋,37.4721439690912,139.923813085194,Z000881,0,S0702000088,,,,,,
S0702000089,中野,37.4689758936527,139.923153563623,0,1,,,,,,,
S070200008900000,中野,37.4689758936527,139.923153563623,Z000890,0,S0702000089,,,,,,
S070200008900001,中野,37.4689758936527,139.923153563623,Z000891,0,S0702000089,,,,,,
S0702000090,南の団地入口,37.4644971902668,139.922251067027,0,1,,,,,,,
S070200009000000,南の団地入口,37.4644971902668,139.922251067027,Z000900,0,S0702000090,,,,,,
S070200009000001,南の団地入口,37.4644971902668,139.922251067027,Z000901,0,S0702000090,,,,,,
S0702000091,運動公園前,37.4613638387945,139.921904017907,0,1,,,,,,,
S070200009100000,運動公園前,37.4613638387945,139.921904017907,Z000910,0,S0702000091,,,,,,
S070200009100001,運動公園前,37.4613638387945,139.921904017907,Z000911,0,S0702000091,,,,,,
S0702000092,一の堰団地入口,37.457996137995,139.921591698917,0,1,,,,,,,
S070200009200000,一の堰団地入口,37.457996137995,139.921591698917,Z000920,0,S0702000092,,,,,,
S070200009200001,一の堰団地入口,37.457996137995,139.921591698917,Z000921,0,S0702000092,,,,,,
S0702000093,堤沢,37.4520939830298,139.921105899926,0,1,,,,,,,
S070200009300000,堤沢,37.4520939830298,139.921105899926,Z000930,0,S0702000093,,,,,,
S070200009300001,堤沢,37.4520939830298,139.921105899926,Z000931,0,S0702000093,,,,,,
S0702000094,根岸,37.448170785485,139.920758887173,0,1,,,,,,,
S070200009400000,根岸,37.448170785485,139.920758887173,Z000940,0,S0702000094,,,,,,
S070200009400001,根岸,37.448170785485,139.920758887173,Z000941,0,S0702000094,,,,,,
S0702000095,門田駅入口,37.4422512700528,139.920203650304,0,1,,,,,,,
S070200009500000,門田駅入口,37.4422512700528,139.920203650304,Z000950,0,S0702000095,,,,,,
S070200009500001,門田駅入口,37.4422512700528,139.920203650304,Z000951,0,S0702000095,,,,,,
S0702000096,面川,37.4385797768448,139.919578871251,0,1,,,,,,,
S070200009600000,面川,37.4385797768448,139.919578871251,Z000960,0,S0702000096,,,,,,
S070200009600001,面川,37.4385797768448,139.919578871251,Z000961,0,S0702000096,,,,,,
S0702000097,面川荒川前,37.4359151088672,139.918294378405,0,1,,,,,,,
S070200009700000,面川荒川前,37.4359151088672,139.918294378405,Z000970,0,S0702000097,,,,,,
S070200009700001,面川荒川前,37.4359151088672,139.918294378405,Z000971,0,S0702000097,,,,,,
S0702000098,面川館堀,37.432920618089,139.917183497438,0,1,,,,,,,
S070200009800000,面川館堀,37.432920618089,139.917183497438,Z000980,0,S0702000098,,,,,,
S070200009800001,面川館堀,37.432920618089,139.917183497438,Z000981,0,S0702000098,,,,,,
S0702000099,石村,37.4311499547419,139.916072560122,0,1,,,,,,,
S070200009900000,石村,37.4311499547419,139.916072560122,Z000990,0,S0702000099,,,,,,
S070200009900001,石村,37.4311499547419,139.916072560122,Z000991,0,S0702000099,,,,,,
S0702000100,石村南,37.4285026423803,139.914579750443,0,1,,,,,,,
S070200010000000,石村南,37.4285026423803,139.914579750443,Z001000,0,S0702000100,,,,,,
S070200010000001,石村南,37.4285026423803,139.914579750443,Z001001,0,S0702000100,,,,,,
S0702000101,下雨屋,37.4243798376662,139.915621520434,0,1,,,,,,,
S070200010100000,下雨屋,37.4243798376662,139.915621520434,Z001010,0,S0702000101,,,,,,
S070200010100001,下雨屋,37.4243798376662,139.915621520434,Z001011,0,S0702000101,,,,,,
S0702000102,宮内（会津若松市）,37.4169327690972,139.918573007118,0,1,,,,,,,
S070200010200000,宮内（会津若松市）,37.4169327690972,139.918573007118,Z001020,0,S0702000102,,,,,,
S070200010200001,宮内（会津若松市）,37.4169327690972,139.918573007118,Z001021,0,S0702000102,,,,,,
S0702000103,上雨屋,37.4148409844067,139.918885577479,0,1,,,,,,,
S070200010300000,上雨屋,37.4148409844067,139.918885577479,Z001030,0,S0702000103,,,,,,
S070200010300001,上雨屋,37.4148409844067,139.918885577479,Z001031,0,S0702000103,,,,,,
S0702000104,堂島屋前,37.4112389488333,139.919441252749,0,1,,,,,,,
S070200010400000,堂島屋前,37.4112389488333,139.919441252749,Z001040,0,S0702000104,,,,,,
S070200010400001,堂島屋前,37.4112389488333,139.919441252749,Z001041,0,S0702000104,,,,,,
S0702000105,南原,37.4015092971926,139.931489311298,0,1,,,,,,,
S070200010500000,南原,37.4015092971926,139.931489311298,Z001050,0,S0702000105,,,,,,
S070200010500001,南原,37.4015092971926,139.931489311298,Z001051,0,S0702000105,,,,,,
S0702000106,大戸支所前,37.398575618986,139.933537887363,0,1,,,,,,,
S070200010600000,大戸支所前,37.398575618986,139.933537887363,Z001060,0,S0702000106,,,,,,
S070200010600001,大戸支所前,37.398575618986,139.933537887363,Z001061,0,S0702000106,,,,,,
S0702000107,上三寄,37.3950950975866,139.934058837698,0,1,,,,,,,
S070200010700000,上三寄,37.3950950975866,139.934058837698,Z001070,0,S0702000107,,,,,,
S070200010700001,上三寄,37.3950950975866,139.934058837698,Z001071,0,S0702000107,,,,,,
S0702000108,大戸小学校前,37.393176886035,139.933260381226,0,1,,,,,,,
S070200010800000,大戸小学校前,37.393176886035,139.933260381226,Z001080,0,S0702000108,,,,,,
S070200010800001,大戸小学校前,37.393176886035,139.933260381226,Z001081,0,S0702000108,,,,,,
S0702000109,坂下屋前,37.3917707773376,139.932739655885,0,1,,,,,,,
S070200010900000,坂下屋前,37.3917707773376,139.932739655885,Z001090,0,S0702000109,,,,,,
S070200010900001,坂下屋前,37.3917707773376,139.932739655885,Z001091,0,S0702000109,,,,,,
S0702000110,岬屋前,37.3883423039882,139.931559356222,0,1,,,,,,,
S070200011000000,岬屋前,37.3883423039882,139.931559356222,Z001100,0,S0702000110,,,,,,
S0702000111,闇川橋,37.3845319227986,139.930136038772,0,1,,,,,,,
S070200011100000,闇川橋,37.3845319227986,139.930136038772,Z001110,0,S0702000111,,,,,,
S0702000112,下小塩,37.3800618596246,139.926976784755,0,1,,,,,,,
S070200011200000,下小塩,37.3800618596246,139.926976784755,Z001120,0,S0702000112,,,,,,
S0702000113,小塩（会津若松市）,37.3741509692445,139.923296806995,0,1,,,,,,,
S070200011300000,小塩（会津若松市）,37.3741509692445,139.923296806995,Z001130,0,S0702000113,,,,,,
S0702000114,引下,37.3668340132206,139.921561176949,0,1,,,,,,,
S070200011400000,引下,37.3668340132206,139.921561176949,Z001140,0,S0702000114,,,,,,
S0702000115,仙峡閣入口,37.3635270049277,139.917533885911,0,1,,,,,,,
S070200011500000,仙峡閣入口,37.3635270049277,139.917533885911,Z001150,0,S0702000115,,,,,,
S0702000116,芦の牧中央待合所,37.3659398745782,139.913714647546,0,1,,,,,,,
S070200011600000,芦の牧中央待合所,37.3659398745782,139.913714647546,Z001160,0,S0702000116,,,,,,
S070200011600001,芦の牧中央待合所,37.3659398745782,139.913714647546,Z001161,0,S0702000116,,,,,,
S070200011600002,芦の牧中央待合所,37.3659398745782,139.913714647546,Z001162,0,S0702000116,,,,,,
S070200011600003,芦の牧中央待合所,37.3659398745782,139.913714647546,Z001163,0,S0702000116,,,,,,
S0702000117,芦の牧すみや前,37.3663998729882,139.912464730169,0,1,,,,,,,
S070200011700000,芦の牧すみや前,37.3663998729882,139.912464730169,Z001170,0,S0702000117,,,,,,
S070200011700001,芦の牧すみや前,37.3663998729882,139.912464730169,Z001171,0,S0702000117,,,,,,
S070200011700002,芦の牧すみや前,37.3663998729882,139.912464730169,Z001172,0,S0702000117,,,,,,
S070200011700003,芦の牧すみや前,37.3663998729882,139.912464730169,Z001173,0,S0702000117,,,,,,
S0702000118,芦の牧車庫,37.3665474023946,139.911075949824,0,1,,,,,,,
S070200011800000,芦の牧車庫,37.3665474023946,139.911075949824,Z001180,0,S0702000118,,,,,,
S070200011800001,芦の牧車庫,37.3665474023946,139.911075949824,Z001181,0,S0702000118,,,,,,
S0702000119,大川発電所前,37.3615739463131,139.909374931214,0,1,,,,,,,
S070200011900000,大川発電所前,37.3615739463131,139.909374931214,Z001190,0,S0702000119,,,,,,
S0702000120,芦の牧橋,37.3664693930809,139.917221276385,0,1,,,,,,,
S070200012000000,芦の牧橋,37.3664693930809,139.917221276385,Z001200,0,S0702000120,,,,,,
S0702000121,平沢（会津若松市）,37.37578270095,139.92110941352,0,1,,,,,,,
S070200012100000,平沢（会津若松市）,37.37578270095,139.92110941352,Z001210,0,S0702000121,,,,,,
S0702000122,小谷入口,37.3839676766914,139.926108621449,0,1,,,,,,,
S070200012200000,小谷入口,37.3839676766914,139.926108621449,Z001220,0,S0702000122,,,,,,
S0702000123,闇川別,37.3883336328505,139.932045427365,0,1,,,,,,,
S070200012300000,闇川別,37.3883336328505,139.932045427365,Z001230,0,S0702000123,,,,,,
S0702000124,若松駅前バスターミナル,37.5074788786533,139.932248257603,0,1,,,,,,,
S070200012400000,若松駅前バスターミナル,37.5074788786533,139.932248257603,Z000840,0,S0702000124,,,,,,
S070200012400001,若松駅前バスターミナル,37.5074788786533,139.932248257603,Z000841,0,S0702000124,,,,,,
S0702000125,三菱伸銅前,37.510560145086,139.932178677054,0,1,,,,,,,
S070200012500000,三菱伸銅前,37.510560145086,139.932178677054,Z001630,0,S0702000125,,,,,,
S0702000126,北柳原,37.5157245293161,139.932525632659,0,1,,,,,,,
S070200012600000,北柳原,37.5157245293161,139.932525632659,Z001620,0,S0702000126,,,,,,
S0702000127,上荒久田,37.5179551280088,139.928775841363,0,1,,,,,,,
S070200012700000,上荒久田,37.5179551280088,139.928775841363,Z001610,0,S0702000127,,,,,,
S0702000128,会津アピオ入口,37.5205935485072,139.918116882868,0,1,,,,,,,
S070200012800000,会津アピオ入口,37.5205935485072,139.918116882868,Z001600,0,S0702000128,,,,,,
S0702000129,沼木,37.5317468269736,139.915686015622,0,1,,,,,,,
S070200012900000,沼木,37.5317468269736,139.915686015622,Z001590,0,S0702000129,,,,,,
S0702000130,平塚,37.5394543055812,139.913949693805,0,1,,,,,,,
S070200013000000,平塚,37.5394543055812,139.913949693805,Z001580,0,S0702000130,,,,,,
S0702000131,木流,37.5431952054871,139.912838502721,0,1,,,,,,,
S070200013100000,木流,37.5431952054871,139.912838502721,Z001570,0,S0702000131,,,,,,
S0702000132,郡山別,37.5474655541609,139.911241216517,0,1,,,,,,,
S070200013200000,郡山別,37.5474655541609,139.911241216517,Z001560,0,S0702000132,,,,,,
S0702000133,会津医療センター,37.5524823198455,139.907873209666,0,1,,,,,,,
S070200013300000,会津医療センター,37.5524823198455,139.907873209666,Z001550,0,S0702000133,,,,,,
S0702000134,十文字,37.5544092067795,139.908428630367,0,1,,,,,,,
S070200013400000,十文字,37.5544092067795,139.908428630367,Z001540,0,S0702000134,,,,,,
S0702000135,代田大和田別,37.5627589583933,139.905581260138,0,1,,,,,,,
S070200013500000,代田大和田別,37.5627589583933,139.905581260138,Z001530,0,S0702000135,,,,,,
S0702000136,北畑,37.5664737969813,139.903185454718,0,1,,,,,,,
S070200013600000,北畑,37.5664737969813,139.903185454718,Z001520,0,S0702000136,,,,,,
S0702000137,西屋敷,37.5700497633537,139.900893813708,0,1,,,,,,,
S070200013700000,西屋敷,37.5700497633537,139.900893813708,Z001510,0,S0702000137,,,,,,
S0702000138,松川,37.5788942045987,139.895234154258,0,1,,,,,,,
S070200013800000,松川,37.5788942045987,139.895234154258,Z001500,0,S0702000138,,,,,,
S0702000139,浜崎,37.5873480674722,139.889852267501,0,1,,,,,,,
S070200013900000,浜崎,37.5873480674722,139.889852267501,Z001490,0,S0702000139,,,,,,
S0702000140,塩川加賀屋前,37.5920437336434,139.889157664523,0,1,,,,,,,
S070200014000000,塩川加賀屋前,37.5920437336434,139.889157664523,Z001480,0,S0702000140,,,,,,
S0702000141,塩川四ッ角,37.5943438524287,139.890164419444,0,1,,,,,,,
S070200014100000,塩川四ッ角,37.5943438524287,139.890164419444,Z001470,0,S0702000141,,,,,,
S0702000142,塩川グリーンプラザ,37.59719077863,139.890650359106,0,1,,,,,,,
S070200014200000,塩川グリーンプラザ,37.59719077863,139.890650359106,Z001460,0,S0702000142,,,,,,
S0702000143,塩川中学校前,37.6014090847114,139.891066796949,0,1,,,,,,,
S070200014300000,塩川中学校前,37.6014090847114,139.891066796949,Z001450,0,S0702000143,,,,,,
S0702000144,上別府,37.6060440195671,139.891865128336,0,1,,,,,,,
S070200014400000,上別府,37.6060440195671,139.891865128336,Z001440,0,S0702000144,,,,,,
S0702000145,高木,37.6111042470584,139.892142650059,0,1,,,,,,,
S070200014500000,高木,37.6111042470584,139.892142650059,Z001430,0,S0702000145,,,,,,
S0702000146,下利根川,37.6141334411855,139.892385545957,0,1,,,,,,,
S070200014600000,下利根川,37.6141334411855,139.892385545957,Z001420,0,S0702000146,,,,,,
S0702000147,イオンタウン塩川,37.6177268232065,139.893322802655,0,1,,,,,,,
S070200014700000,イオンタウン塩川,37.6177268232065,139.893322802655,Z001410,0,S0702000147,,,,,,
S0702000148,上利根川入口,37.6202873041259,139.892801894681,0,1,,,,,,,
S070200014800000,上利根川入口,37.6202873041259,139.892801894681,Z001400,0,S0702000148,,,,,,
S0702000149,太田,37.625260734739,139.893044701062,0,1,,,,,,,
S070200014900000,太田,37.625260734739,139.893044701062,Z001390,0,S0702000149,,,,,,
S0702000150,堂畑,37.6313972002225,139.891273732241,0,1,,,,,,,
S070200015000000,堂畑,37.6313972002225,139.891273732241,Z001380,0,S0702000150,,,,,,
S0702000151,下勝南,37.6345912854359,139.890266724351,0,1,,,,,,,
S070200015100000,下勝南,37.6345912854359,139.890266724351,Z001370,0,S0702000151,,,,,,
S0702000152,下勝,37.6370649640196,139.889398626985,0,1,,,,,,,
S070200015200000,下勝,37.6370649640196,139.889398626985,Z001360,0,S0702000152,,,,,,
S0702000153,百目,37.6406322459138,139.886829231665,0,1,,,,,,,
S070200015300000,百目,37.6406322459138,139.886829231665,Z001350,0,S0702000153,,,,,,
S0702000154,上高額,37.644051988093,139.885058387931,0,1,,,,,,,
S070200015400000,上高額,37.644051988093,139.885058387931,Z001340,0,S0702000154,,,,,,
S0702000155,喜多方警察署前,37.6469596377266,139.883600041823,0,1,,,,,,,
S070200015500000,喜多方警察署前,37.6469596377266,139.883600041823,Z001330,0,S0702000155,,,,,,
S0702000156,喜多方東高校前,37.6510216674653,139.881551413806,0,1,,,,,,,
S070200015600000,喜多方東高校前,37.6510216674653,139.881551413806,Z001320,0,S0702000156,,,,,,
S0702000157,南小田付,37.6539813966812,139.880197223317,0,1,,,,,,,
S070200015700000,南小田付,37.6539813966812,139.880197223317,Z001310,0,S0702000157,,,,,,
S0702000158,新道,37.6549534779345,139.878079298893,0,1,,,,,,,
S070200015800000,新道,37.6549534779345,139.878079298893,Z001300,0,S0702000158,,,,,,
S0702000159,新町［喜多方市］,37.6547971694532,139.873774108076,0,1,,,,,,,
S070200015900000,新町［喜多方市］,37.6547971694532,139.873774108076,Z001290,0,S0702000159,,,,,,
S0702000160,寺町角,37.6522106084179,139.871934102213,0,1,,,,,,,
S070200016000000,寺町角,37.6522106084179,139.871934102213,Z001280,0,S0702000160,,,,,,
S0702000161,幸町,37.6507003448009,139.871448101006,0,1,,,,,,,
S070200016100000,幸町,37.6507003448009,139.871448101006,Z001270,0,S0702000161,,,,,,
S0702000162,大通り四ッ角,37.6468899714943,139.87047613496,0,1,,,,,,,
S070200016200000,大通り四ッ角,37.6468899714943,139.87047613496,Z001260,0,S0702000162,,,,,,
S0702000163,喜多方営業所,37.6458310181706,139.868254146033,0,1,,,,,,,
S070200016300000,喜多方営業所,37.6458310181706,139.868254146033,Z001250,0,S0702000163,,,,,,
S070200016300001,喜多方営業所,37.6458310181706,139.868254146033,Z001251,0,S0702000163,,,,,,
S0702000164,喜多方駅前,37.64413849633,139.868566698011,0,1,,,,,,,
S070200016400000,喜多方駅前,37.64413849633,139.868566698011,Z001240,0,S0702000164,,,,,,
S070200016400001,喜多方駅前,37.64413849633,139.868566698011,Z001241,0,S0702000164,,,,,,
S0702000165,米代,37.4853283549013,139.925652603102,0,1,,,,,,,
S070200016500000,米代,37.4853283549013,139.925652603102,Z001640,0,S0702000165,,,,,,
S0702000166,荒久田,37.51881435713,139.925685780649,0,1,,,,,,,
S070200016600000,荒久田,37.51881435713,139.925685780649,Z001650,0,S0702000166,,,,,,
S0702000167,下荒久田,37.5215136920733,139.9240191281,0,1,,,,,,,
S070200016700000,下荒久田,37.5215136920733,139.9240191281,Z001660,0,S0702000167,,,,,,
S0702000168,会津丸運前,37.5250115442268,139.921866368042,0,1,,,,,,,
S070200016800000,会津丸運前,37.5250115442268,139.921866368042,Z001670,0,S0702000168,,,,,,
S0702000169,沼木倉庫前,37.5305056942568,139.918776093921,0,1,,,,,,,
S070200016900000,沼木倉庫前,37.5305056942568,139.918776093921,Z001680,0,S0702000169,,,,,,
S0702000170,鶴沼入口,37.5355051097829,139.915928877951,0,1,,,,,,,
S070200017000000,鶴沼入口,37.5355051097829,139.915928877951,Z001690,0,S0702000170,,,,,,
S0702000171,会津下郷駅,37.2551349094245,139.865355710364,0,1,,,,,,,
S070200017100000,会津下郷駅,37.2551349094245,139.865355710364,Z001700,0,S0702000171,,,,,,
S070200017100001,会津下郷駅,37.2551349094245,139.865355710364,Z001701,0,S0702000171,,,,,,
S0702000172,楢原中央待合所,37.2554560835236,139.866952785163,0,1,,,,,,,
S070200017200000,楢原中央待合所,37.2554560835236,139.866952785163,Z001710,0,S0702000172,,,,,,
S070200017200001,楢原中央待合所,37.2554560835236,139.866952785163,Z001711,0,S0702000172,,,,,,
S0702000173,下郷中学校,37.2609937942019,139.873167291837,0,1,,,,,,,
S070200017300000,下郷中学校,37.2609937942019,139.873167291837,Z001720,0,S0702000173,,,,,,
S070200017300001,下郷中学校,37.2609937942019,139.873167291837,Z001721,0,S0702000173,,,,,,
S0702000174,旭橋,37.2557685913362,139.869313685813,0,1,,,,,,,
S070200017400000,旭橋,37.2557685913362,139.869313685813,Z001730,0,S0702000174,,,,,,
S070200017400001,旭橋,37.2557685913362,139.869313685813,Z001731,0,S0702000174,,,,,,
S0702000175,下郷公民館前,37.2531994016831,139.868168065924,0,1,,,,,,,
S070200017500000,下郷公民館前,37.2531994016831,139.868168065924,Z001740,0,S0702000175,,,,,,
S070200017500001,下郷公民館前,37.2531994016831,139.868168065924,Z001741,0,S0702000175,,,,,,
S0702000176,塩生農協前,37.2515763556686,139.870702652388,0,1,,,,,,,
S070200017600000,塩生農協前,37.2515763556686,139.870702652388,Z001750,0,S0702000176,,,,,,
S070200017600001,塩生農協前,37.2515763556686,139.870702652388,Z001751,0,S0702000176,,,,,,
S0702000177,役場前（下郷町）,37.2528609683837,139.872299682826,0,1,,,,,,,
S070200017700000,役場前（下郷町）,37.2528609683837,139.872299682826,Z001760,0,S0702000177,,,,,,
S070200017700001,役場前（下郷町）,37.2528609683837,139.872299682826,Z001761,0,S0702000177,,,,,,
S0702000178,旭田小学校前,37.2512552628255,139.873757968987,0,1,,,,,,,
S070200017800000,旭田小学校前,37.2512552628255,139.873757968987,Z001770,0,S0702000178,,,,,,
S070200017800001,旭田小学校前,37.2512552628255,139.873757968987,Z001771,0,S0702000178,,,,,,
S0702000179,田沢橋,37.2483735823387,139.871223589935,0,1,,,,,,,
S070200017900000,田沢橋,37.2483735823387,139.871223589935,Z001780,0,S0702000179,,,,,,
S070200017900001,田沢橋,37.2483735823387,139.871223589935,Z001781,0,S0702000179,,,,,,
S0702000180,桧原,37.2449970375806,139.861502330534,0,1,,,,,,,
S070200018000000,桧原,37.2449970375806,139.861502330534,Z001790,0,S0702000180,,,,,,
S070200018000001,桧原,37.2449970375806,139.861502330534,Z001791,0,S0702000180,,,,,,
S0702000181,大川ふるさと公園入口,37.2434173017757,139.859002610875,0,1,,,,,,,
S070200018100000,大川ふるさと公園入口,37.2434173017757,139.859002610875,Z001800,0,S0702000181,,,,,,
S070200018100001,大川ふるさと公園入口,37.2434173017757,139.859002610875,Z001801,0,S0702000181,,,,,,
S0702000182,桃曽根,37.240769956669,139.855634956901,0,1,,,,,,,
S070200018200000,桃曽根,37.240769956669,139.855634956901,Z001810,0,S0702000182,,,,,,
S070200018200001,桃曽根,37.240769956669,139.855634956901,Z001811,0,S0702000182,,,,,,
S0702000183,落合,37.2253113387515,139.844074128837,0,1,,,,,,,
S070200018300000,落合,37.2253113387515,139.844074128837,Z001820,0,S0702000183,,,,,,
S070200018300001,落合,37.2253113387515,139.844074128837,Z001821,0,S0702000183,,,,,,
S0702000184,養鱒公園駅前,37.2235580255629,139.842442400641,0,1,,,,,,,
S070200018400000,養鱒公園駅前,37.2235580255629,139.842442400641,Z001830,0,S0702000184,,,,,,
S070200018400001,養鱒公園駅前,37.2235580255629,139.842442400641,Z001831,0,S0702000184,,,,,,
S0702000185,十文字下,37.2046543803261,139.875808555618,0,1,,,,,,,
S070200018500000,十文字下,37.2046543803261,139.875808555618,Z001840,0,S0702000185,,,,,,
S0702000186,十文字中,37.202979308698,139.881329007615,0,1,,,,,,,
S070200018600000,十文字中,37.202979308698,139.881329007615,Z001850,0,S0702000186,,,,,,
S0702000187,十文字上,37.1991952338074,139.895216917369,0,1,,,,,,,
S070200018700000,十文字上,37.1991952338074,139.895216917369,Z001860,0,S0702000187,,,,,,
S0702000188,南小学校,37.1945860910328,139.880287813899,0,1,,,,,,,
S070200018800000,南小学校,37.1945860910328,139.880287813899,Z001870,0,S0702000188,,,,,,
S0702000189,音金上坪,37.1892655668976,139.88528764366,0,1,,,,,,,
S070200018900000,音金上坪,37.1892655668976,139.88528764366,Z001880,0,S0702000189,,,,,,
S0702000190,中坪上,37.1885190043534,139.878725722999,0,1,,,,,,,
S070200019000000,中坪上,37.1885190043534,139.878725722999,Z001890,0,S0702000190,,,,,,
S0702000191,中坪下,37.1889616228918,139.876295348902,0,1,,,,,,,
S070200019100000,中坪下,37.1889616228918,139.876295348902,Z001900,0,S0702000191,,,,,,
S0702000192,如意輪観音,37.1922077707085,139.874420355144,0,1,,,,,,,
S070200019200000,如意輪観音,37.1922077707085,139.874420355144,Z001910,0,S0702000192,,,,,,
S0702000193,音金下坪,37.1943342478329,139.872614851617,0,1,,,,,,,
S070200019300000,音金下坪,37.1943342478329,139.872614851617,Z001920,0,S0702000193,,,,,,
S0702000194,音金下の原,37.1971984253513,139.866920748176,0,1,,,,,,,
S070200019400000,音金下の原,37.1971984253513,139.866920748176,Z001930,0,S0702000194,,,,,,
S0702000195,養鱒公園前,37.2081517758687,139.847512133456,0,1,,,,,,,
S070200019500000,養鱒公園前,37.2081517758687,139.847512133456,Z001940,0,S0702000195,,,,,,
S0702000196,会津田島駅前,37.2028212053056,139.774254573996,0,1,,,,,,,
S070200019600000,会津田島駅前,37.2028212053056,139.774254573996,Z003520,0,S0702000196,,,,,,
S0702000197,合同庁舎前（南会津町）,37.2019097504625,139.768873118446,0,1,,,,,,,
S070200019700000,合同庁舎前（南会津町）,37.2019097504625,139.768873118446,Z003490,0,S0702000197,,,,,,
S0702000200,大内下,37.3320884135738,139.861324723898,0,1,,,,,,,
S070200020000000,大内下,37.3320884135738,139.861324723898,Z005710,0,S0702000200,,,,,,
S0702000201,大内上,37.3355950375256,139.864449302936,0,1,,,,,,,
S070200020100000,大内上,37.3355950375256,139.864449302936,Z005720,0,S0702000201,,,,,,
S0702000202,湯野上温泉駅前,37.3014412734039,139.897017615281,0,1,,,,,,,
S070200020200000,湯野上温泉駅前,37.3014412734039,139.897017615281,Z005700,0,S0702000202,,,,,,
S0702000205,塔のへつり,37.275202755011,139.89670634933,0,1,,,,,,,
S070200020500000,塔のへつり,37.275202755011,139.89670634933,Z005640,0,S0702000205,,,,,,
S0702000207,一箕小学校前,37.5066284358837,139.941448921544,0,1,,,,,,,
S070200020700000,一箕小学校前,37.5066284358837,139.941448921544,Z001950,0,S0702000207,,,,,,
S070200020700001,一箕小学校前,37.5066284358837,139.941448921544,Z001951,0,S0702000207,,,,,,
S0702000208,山見町,37.5091368523807,139.941691841421,0,1,,,,,,,
S070200020800000,山見町,37.5091368523807,139.941691841421,Z001960,0,S0702000208,,,,,,
S070200020800001,山見町,37.5091368523807,139.941691841421,Z001961,0,S0702000208,,,,,,
S0702000209,大塚山入口,37.5146223846352,139.942142940256,0,1,,,,,,,
S070200020900000,大塚山入口,37.5146223846352,139.942142940256,Z001970,0,S0702000209,,,,,,
S070200020900001,大塚山入口,37.5146223846352,139.942142940256,Z001971,0,S0702000209,,,,,,
S0702000210,郷の原,37.5173738088629,139.941135952746,0,1,,,,,,,
S070200021000000,郷の原,37.5173738088629,139.941135952746,Z001980,0,S0702000210,,,,,,
S070200021000001,郷の原,37.5173738088629,139.941135952746,Z001981,0,S0702000210,,,,,,
S0702000211,下居合会津中央病院前,37.5222257780579,139.944434066536,0,1,,,,,,,
S070200021100000,下居合会津中央病院前,37.5222257780579,139.944434066536,Z001990,0,S0702000211,,,,,,
S0702000212,壇別,37.5279196213646,139.944885155778,0,1,,,,,,,
S070200021200000,壇別,37.5279196213646,139.944885155778,Z002000,0,S0702000212,,,,,,
S0702000213,松窪別,37.5339866692351,139.944225208996,0,1,,,,,,,
S070200021300000,松窪別,37.5339866692351,139.944225208996,Z002010,0,S0702000213,,,,,,
S0702000214,駒板,37.5387344198397,139.943912516347,0,1,,,,,,,
S070200021400000,駒板,37.5387344198397,139.943912516347,Z002020,0,S0702000214,,,,,,
S0702000215,河東総合体育館入口,37.5449229837034,139.943322002647,0,1,,,,,,,
S070200021500000,河東総合体育館入口,37.5449229837034,139.943322002647,Z002030,0,S0702000215,,,,,,
S0702000216,仁愛看護福祉専門学校前,37.5452092252386,139.932663152452,0,1,,,,,,,
S070200021600000,仁愛看護福祉専門学校前,37.5452092252386,139.932663152452,Z002040,0,S0702000216,,,,,,
S0702000217,河東公民館入口,37.5491236576554,139.928114738836,0,1,,,,,,,
S070200021700000,河東公民館入口,37.5491236576554,139.928114738836,Z002050,0,S0702000217,,,,,,
S0702000218,河東支所,37.5515191929135,139.925718994161,0,1,,,,,,,
S070200021800000,河東支所,37.5515191929135,139.925718994161,Z002060,0,S0702000218,,,,,,
S0702000219,金道,37.5527864300017,139.926378603251,0,1,,,,,,,
S070200021900000,金道,37.5527864300017,139.926378603251,Z002070,0,S0702000219,,,,,,
S0702000220,リオン・ドール河東店,37.5531336526847,139.92853118627,0,1,,,,,,,
S070200022000000,リオン・ドール河東店,37.5531336526847,139.92853118627,Z002080,0,S0702000220,,,,,,
S0702000221,南高野別,37.551753622284,139.930267216751,0,1,,,,,,,
S070200022100000,南高野別,37.551753622284,139.930267216751,Z002090,0,S0702000221,,,,,,
S0702000222,広田駅前,37.550087166006,139.932107418437,0,1,,,,,,,
S070200022200000,広田駅前,37.550087166006,139.932107418437,Z002100,0,S0702000222,,,,,,
S0702000223,広田駅,37.5496358460104,139.933287896736,0,1,,,,,,,
S070200022300000,広田駅,37.5496358460104,139.933287896736,Z002110,0,S0702000223,,,,,,
S0702000224,河東中学校西口,37.5519533222309,139.934190492842,0,1,,,,,,,
S070200022400000,河東中学校西口,37.5519533222309,139.934190492842,Z002120,0,S0702000224,,,,,,
S0702000225,葉山団地,37.5556423329607,139.943877018518,0,1,,,,,,,
S070200022500000,葉山団地,37.5556423329607,139.943877018518,Z002130,0,S0702000225,,,,,,
S070200022500001,葉山団地,37.5556423329607,139.943877018518,Z002131,0,S0702000225,,,,,,
S0702000226,會津藩校日新館,37.5563800830785,139.942835404385,0,1,,,,,,,
S070200022600000,會津藩校日新館,37.5563800830785,139.942835404385,Z002140,0,S0702000226,,,,,,
S0702000227,高塚団地,37.5543317953652,139.948807224971,0,1,,,,,,,
S070200022700000,高塚団地,37.5543317953652,139.948807224971,Z002150,0,S0702000227,,,,,,
S0702000228,会津村,37.5545314850035,139.952140272302,0,1,,,,,,,
S070200022800000,会津村,37.5545314850035,139.952140272302,Z002160,0,S0702000228,,,,,,
S0702000229,漆沢,37.5513896200546,139.96130632241,0,1,,,,,,,
S070200022900000,漆沢,37.5513896200546,139.96130632241,Z002170,0,S0702000229,,,,,,
S0702000230,八田野,37.5433437924356,139.972000249217,0,1,,,,,,,
S070200023000000,八田野,37.5433437924356,139.972000249217,Z002180,0,S0702000230,,,,,,
S0702000231,高野下,37.5314875527012,139.979500172297,0,1,,,,,,,
S070200023100000,高野下,37.5314875527012,139.979500172297,Z002190,0,S0702000231,,,,,,
S0702000232,強清水,37.5177479114887,139.991444257461,0,1,,,,,,,
S070200023200000,強清水,37.5177479114887,139.991444257461,Z002200,0,S0702000232,,,,,,
S0702000233,穴切,37.5107260791611,139.990646035974,0,1,,,,,,,
S070200023300000,穴切,37.5107260791611,139.990646035974,Z002210,0,S0702000233,,,,,,
S0702000234,赤井小坂,37.5032790324222,139.994847418854,0,1,,,,,,,
S070200023400000,赤井小坂,37.5032790324222,139.994847418854,Z002220,0,S0702000234,,,,,,
S0702000235,赤井岩崎前,37.4971946786595,139.998562668249,0,1,,,,,,,
S070200023500000,赤井岩崎前,37.4971946786595,139.998562668249,Z002230,0,S0702000235,,,,,,
S0702000236,赤井吉崎前,37.4965437454306,140.000784735904,0,1,,,,,,,
S070200023600000,赤井吉崎前,37.4965437454306,140.000784735904,Z002240,0,S0702000236,,,,,,
S0702000237,四ッ谷,37.4902337947347,140.008701035682,0,1,,,,,,,
S070200023700000,四ッ谷,37.4902337947347,140.008701035682,Z002250,0,S0702000237,,,,,,
S0702000238,苅上場,37.4866404369693,140.009152552535,0,1,,,,,,,
S070200023800000,苅上場,37.4866404369693,140.009152552535,Z002260,0,S0702000238,,,,,,
S0702000239,下馬渡,37.4801741371639,140.010437465798,0,1,,,,,,,
S070200023900000,下馬渡,37.4801741371639,140.010437465798,Z002270,0,S0702000239,,,,,,
S0702000240,中田浜入口,37.4768932568916,140.011513916363,0,1,,,,,,,
S070200024000000,中田浜入口,37.4768932568916,140.011513916363,Z002280,0,S0702000240,,,,,,
S0702000241,上馬渡,37.47405502669,140.011965398448,0,1,,,,,,,
S070200024100000,上馬渡,37.47405502669,140.011965398448,Z002290,0,S0702000241,,,,,,
S0702000242,清水茶屋,37.4713643452992,140.012139119029,0,1,,,,,,,
S070200024200000,清水茶屋,37.4713643452992,140.012139119029,Z002300,0,S0702000242,,,,,,
S0702000243,湊小学校前,37.4689687669875,140.01206979065,0,1,,,,,,,
S070200024300000,湊小学校前,37.4689687669875,140.01206979065,Z002310,0,S0702000243,,,,,,
S0702000244,しらとり保育園前,37.4679098573239,140.012347594116,0,1,,,,,,,
S070200024400000,しらとり保育園前,37.4679098573239,140.012347594116,Z002320,0,S0702000244,,,,,,
S0702000245,西田面,37.4644032885535,140.012382474907,0,1,,,,,,,
S070200024500000,西田面,37.4644032885535,140.012382474907,Z002330,0,S0702000245,,,,,,
S0702000246,二ッ谷,37.4573380993245,140.013945170456,0,1,,,,,,,
S070200024600000,二ッ谷,37.4573380993245,140.013945170456,Z002340,0,S0702000246,,,,,,
S0702000247,南松,37.4549512734066,140.018042162333,0,1,,,,,,,
S070200024700000,南松,37.4549512734066,140.018042162333,Z002350,0,S0702000247,,,,,,
S0702000248,原小坂,37.4496307037922,140.020438041685,0,1,,,,,,,
S070200024800000,原小坂,37.4496307037922,140.020438041685,Z002360,0,S0702000248,,,,,,
S0702000249,原長谷川前,37.447790617981,140.020160371698,0,1,,,,,,,
S070200024900000,原長谷川前,37.447790617981,140.020160371698,Z002370,0,S0702000249,,,,,,
S0702000250,堰場［国道］,37.4356999343227,140.022278808056,0,1,,,,,,,
S070200025000000,堰場［国道］,37.4356999343227,140.022278808056,Z002380,0,S0702000250,,,,,,
S0702000251,高坂［旧道］,37.4144352030997,140.042625319691,0,1,,,,,,,
S070200025100000,高坂［旧道］,37.4144352030997,140.042625319691,Z002400,0,S0702000251,,,,,,
S0702000252,赤津,37.4066760663502,140.068387426343,0,1,,,,,,,
S070200025200000,赤津,37.4066760663502,140.068387426343,Z002410,0,S0702000252,,,,,,
S0702000253,赤津簡易郵便局前,37.4047578687455,140.068387514662,0,1,,,,,,,
S070200025300000,赤津簡易郵便局前,37.4047578687455,140.068387514662,Z002420,0,S0702000253,,,,,,
S0702000254,赤津仲町,37.4035513987497,140.068283412195,0,1,,,,,,,
S070200025400000,赤津仲町,37.4035513987497,140.068283412195,Z002430,0,S0702000254,,,,,,
S0702000255,赤津久下商店前,37.4015637647342,140.06831822305,0,1,,,,,,,
S070200025500000,赤津久下商店前,37.4015637647342,140.06831822305,Z002440,0,S0702000255,,,,,,
S0702000256,赤津小枝町,37.3983436994591,140.072693008002,0,1,,,,,,,
S070200025600000,赤津小枝町,37.3983436994591,140.072693008002,Z002450,0,S0702000256,,,,,,
S0702000257,地蔵山前,37.3944466693502,140.079706493873,0,1,,,,,,,
S070200025700000,地蔵山前,37.3944466693502,140.079706493873,Z002460,0,S0702000257,,,,,,
S0702000258,福良古町,37.393795779175,140.084393634581,0,1,,,,,,,
S070200025800000,福良古町,37.393795779175,140.084393634581,Z002470,0,S0702000258,,,,,,
S0702000259,福良大阪屋前,37.3931448538291,140.08706705364,0,1,,,,,,,
S070200025900000,福良大阪屋前,37.3931448538291,140.08706705364,Z002480,0,S0702000259,,,,,,
S0702000260,福良荒町,37.3923116411531,140.088872497622,0,1,,,,,,,
S070200026000000,福良荒町,37.3923116411531,140.088872497622,Z002490,0,S0702000260,,,,,,
S0702000261,湖南高校前,37.3904802276924,140.08817819517,0,1,,,,,,,
S070200026100000,湖南高校前,37.3904802276924,140.08817819517,Z002500,0,S0702000261,,,,,,
S0702000262,末広町,37.6485130314557,139.868740093289,0,1,,,,,,,
S070200026200000,末広町,37.6485130314557,139.868740093289,Z002510,0,S0702000262,,,,,,
S0702000263,県職員公舎前,37.6518894149143,139.869226008574,0,1,,,,,,,
S070200026300000,県職員公舎前,37.6518894149143,139.869226008574,Z002520,0,S0702000263,,,,,,
S0702000264,労働基準監督署前,37.6540072500076,139.86957310445,0,1,,,,,,,
S070200026400000,労働基準監督署前,37.6540072500076,139.86957310445,Z002530,0,S0702000264,,,,,,
S0702000265,花園町,37.6559428177816,139.87019796343,0,1,,,,,,,
S070200026500000,花園町,37.6559428177816,139.87019796343,Z002540,0,S0702000265,,,,,,
S0702000266,喜多方高校入口,37.6591977070771,139.871864341828,0,1,,,,,,,
S070200026600000,喜多方高校入口,37.6591977070771,139.871864341828,Z002550,0,S0702000266,,,,,,
S0702000267,桜ガ丘,37.6621834976109,139.871794765677,0,1,,,,,,,
S070200026700000,桜ガ丘,37.6621834976109,139.871794765677,Z002560,0,S0702000267,,,,,,
S0702000268,第二中学校南口（喜多方）,37.6656380183312,139.873461134883,0,1,,,,,,,
S070200026800000,第二中学校南口（喜多方）,37.6656380183312,139.873461134883,Z002570,0,S0702000268,,,,,,
S0702000269,東桜ガ丘,37.6646399145689,139.876516482654,0,1,,,,,,,
S070200026900000,東桜ガ丘,37.6646399145689,139.876516482654,Z002580,0,S0702000269,,,,,,
S0702000270,合同庁舎入口（喜多方市）,37.6607861625309,139.876655537448,0,1,,,,,,,
S070200027000000,合同庁舎入口（喜多方市）,37.6607861625309,139.876655537448,Z002590,0,S0702000270,,,,,,
S0702000271,北町,37.657288320686,139.879398526264,0,1,,,,,,,
S070200027100000,北町,37.657288320686,139.879398526264,Z002600,0,S0702000271,,,,,,
S0702000272,南町,37.655604479079,139.879745797182,0,1,,,,,,,
S070200027200000,南町,37.655604479079,139.879745797182,Z002610,0,S0702000272,,,,,,
S0702000273,西四ッ谷北,37.65251448754,139.87721142772,0,1,,,,,,,
S070200027300000,西四ッ谷北,37.65251448754,139.87721142772,Z002620,0,S0702000273,,,,,,
S0702000274,西四ッ谷南,37.6485565842206,139.877593522681,0,1,,,,,,,
S070200027400000,西四ッ谷南,37.6485565842206,139.877593522681,Z002630,0,S0702000274,,,,,,
S0702000275,第二小学校前（喜多方）,37.6470028660736,139.873878624966,0,1,,,,,,,
S070200027500000,第二小学校前（喜多方）,37.6470028660736,139.873878624966,Z002640,0,S0702000275,,,,,,
S0702000276,駅中道（喜多方駅）,37.644911018925,139.870615103432,0,1,,,,,,,
S070200027600000,駅中道（喜多方駅）,37.644911018925,139.870615103432,Z002650,0,S0702000276,,,,,,
S0702000277,昭和電工前,37.6420294087793,139.872108167679,0,1,,,,,,,
S070200027700000,昭和電工前,37.6420294087793,139.872108167679,Z002660,0,S0702000277,,,,,,
S0702000278,高吉別,37.6383058675213,139.873184638625,0,1,,,,,,,
S070200027800000,高吉別,37.6383058675213,139.873184638625,Z002670,0,S0702000278,,,,,,
S0702000279,豊川支所前,37.6354068841743,139.873879158879,0,1,,,,,,,
S070200027900000,豊川支所前,37.6354068841743,139.873879158879,Z002680,0,S0702000279,,,,,,
S0702000280,菅井別,37.6314142611335,139.87419181676,0,1,,,,,,,
S070200028000000,菅井別,37.6314142611335,139.87419181676,Z002690,0,S0702000280,,,,,,
S0702000281,菅井,37.6277166829585,139.870928369159,0,1,,,,,,,
S070200028100000,菅井,37.6277166829585,139.870928369159,Z002700,0,S0702000281,,,,,,
S0702000282,荒分,37.6247395477964,139.86960917136,0,1,,,,,,,
S070200028200000,荒分,37.6247395477964,139.86960917136,Z002710,0,S0702000282,,,,,,
S0702000283,台,37.6182557510864,139.863012795518,0,1,,,,,,,
S070200028300000,台,37.6182557510864,139.863012795518,Z002720,0,S0702000283,,,,,,
S0702000284,万力,37.6151831024292,139.859541003111,0,1,,,,,,,
S070200028400000,万力,37.6151831024292,139.859541003111,Z002730,0,S0702000284,,,,,,
S0702000285,鎧召,37.6101662221371,139.856347054932,0,1,,,,,,,
S070200028500000,鎧召,37.6101662221371,139.856347054932,Z002740,0,S0702000285,,,,,,
S0702000286,大沢北,37.60652936982,139.851278198917,0,1,,,,,,,
S070200028600000,大沢北,37.60652936982,139.851278198917,Z002750,0,S0702000286,,,,,,
S0702000287,大沢（喜多方市）,37.604949658877,139.850201972148,0,1,,,,,,,
S070200028700000,大沢（喜多方市）,37.604949658877,139.850201972148,Z002760,0,S0702000287,,,,,,
S0702000288,清掃センター前,37.5959140141829,139.841453114794,0,1,,,,,,,
S070200028800000,清掃センター前,37.5959140141829,139.841453114794,Z002770,0,S0702000288,,,,,,
S0702000289,青津入口,37.5899683749747,139.836037171695,0,1,,,,,,,
S070200028900000,青津入口,37.5899683749747,139.836037171695,Z002780,0,S0702000289,,,,,,
S0702000290,青木（会津坂下町）,37.5881456459924,139.835620623553,0,1,,,,,,,
S070200029000000,青木（会津坂下町）,37.5881456459924,139.835620623553,Z002790,0,S0702000290,,,,,,
S0702000291,谷地入口,37.5822261141876,139.834127964537,0,1,,,,,,,
S070200029100000,谷地入口,37.5822261141876,139.834127964537,Z002800,0,S0702000291,,,,,,
S0702000292,佐藤分,37.5790667165571,139.833364284551,0,1,,,,,,,
S070200029200000,佐藤分,37.5790667165571,139.833364284551,Z002810,0,S0702000292,,,,,,
S0702000293,御池田別,37.5726089975375,139.828989945193,0,1,,,,,,,
S070200029300000,御池田別,37.5726089975375,139.828989945193,Z002820,0,S0702000293,,,,,,
S0702000294,政所,37.569284671831,139.82735828933,0,1,,,,,,,
S070200029400000,政所,37.569284671831,139.82735828933,Z002830,0,S0702000294,,,,,,
S0702000295,ラスール坂下前,37.5645108617278,139.82649052566,0,1,,,,,,,
S070200029500000,ラスール坂下前,37.5645108617278,139.82649052566,Z002840,0,S0702000295,,,,,,
S0702000296,坂下東小前,37.5603447546872,139.833017953176,0,1,,,,,,,
S070200029600000,坂下東小前,37.5603447546872,139.833017953176,Z002850,0,S0702000296,,,,,,
S070200029600001,坂下東小前,37.5603447546872,139.833017953176,Z002851,0,S0702000296,,,,,,
S0702000297,台の下,37.5594160291225,139.832705521888,0,1,,,,,,,
S070200029700000,台の下,37.5594160291225,139.832705521888,Z002860,0,S0702000297,,,,,,
S070200029700001,台の下,37.5594160291225,139.832705521888,Z002861,0,S0702000297,,,,,,
S0702000298,古坂下,37.5602578935319,139.829302987923,0,1,,,,,,,
S070200029800000,古坂下,37.5602578935319,139.829302987923,Z002870,0,S0702000298,,,,,,
S070200029800001,古坂下,37.5602578935319,139.829302987923,Z002871,0,S0702000298,,,,,,
S0702000299,喜多方街道入口,37.5608653916352,139.8249630426,0,1,,,,,,,
S070200029900000,喜多方街道入口,37.5608653916352,139.8249630426,Z002880,0,S0702000299,,,,,,
S070200029900001,喜多方街道入口,37.5608653916352,139.8249630426,Z002881,0,S0702000299,,,,,,
S0702000300,坂下橋本,37.5609781995009,139.82340066716,0,1,,,,,,,
S070200030000000,坂下橋本,37.5609781995009,139.82340066716,Z002890,0,S0702000300,,,,,,
S0702000301,仲町,37.5610823350162,139.822254924184,0,1,,,,,,,
S070200030100000,仲町,37.5610823350162,139.822254924184,Z002900,0,S0702000301,,,,,,
S070200030100001,仲町,37.5610823350162,139.822254924184,Z002901,0,S0702000301,,,,,,
S0702000302,赤城タクシー前,37.5612906084721,139.820102315588,0,1,,,,,,,
S070200030200000,赤城タクシー前,37.5612906084721,139.820102315588,Z002910,0,S0702000302,,,,,,
S070200030200001,赤城タクシー前,37.5612906084721,139.820102315588,Z002911,0,S0702000302,,,,,,
S0702000303,諏訪町,37.5616116916129,139.816491489568,0,1,,,,,,,
S070200030300000,諏訪町,37.5616116916129,139.816491489568,Z002920,0,S0702000303,,,,,,
S070200030300001,諏訪町,37.5616116916129,139.816491489568,Z002921,0,S0702000303,,,,,,
S0702000304,新町［会津坂下町］,37.5635559086946,139.815380381209,0,1,,,,,,,
S070200030400000,新町［会津坂下町］,37.5635559086946,139.815380381209,Z002930,0,S0702000304,,,,,,
S070200030400001,新町［会津坂下町］,37.5635559086946,139.815380381209,Z002931,0,S0702000304,,,,,,
S0702000305,坂下営業所,37.5673922499351,139.812290183418,0,1,,,,,,,
S070200030500000,坂下営業所,37.5673922499351,139.812290183418,Z002940,0,S0702000305,,,,,,
S070200030500001,坂下営業所,37.5673922499351,139.812290183418,Z002941,0,S0702000305,,,,,,
S0702000306,緑町,37.5620111181878,139.825865692657,0,1,,,,,,,
S070200030600000,緑町,37.5620111181878,139.825865692657,Z002950,0,S0702000306,,,,,,
S0702000307,一の町,37.4977056057256,139.931519601477,0,1,,,,,,,
S070200030700000,一の町,37.4977056057256,139.931519601477,Z002960,0,S0702000307,,,,,,
S0702000308,上町（会津若松市）,37.4976101771251,139.934227714298,0,1,,,,,,,
S070200030800000,上町（会津若松市）,37.4976101771251,139.934227714298,Z002970,0,S0702000308,,,,,,
S0702000309,上町長谷川前,37.4989468494114,139.934783162175,0,1,,,,,,,
S070200030900000,上町長谷川前,37.4989468494114,139.934783162175,Z002980,0,S0702000309,,,,,,
S0702000310,相生町,37.5019587036887,139.936137077714,0,1,,,,,,,
S070200031000000,相生町,37.5019587036887,139.936137077714,Z002990,0,S0702000310,,,,,,
S0702000311,行仁町,37.4982524956104,139.935720616293,0,1,,,,,,,
S070200031100000,行仁町,37.4982524956104,139.935720616293,Z003000,0,S0702000311,,,,,,
S0702000312,中六日町,37.4997106838899,139.936345497253,0,1,,,,,,,
S070200031200000,中六日町,37.4997106838899,139.936345497253,Z003010,0,S0702000312,,,,,,
S0702000313,旭町,37.5008911228873,139.936900952322,0,1,,,,,,,
S070200031300000,旭町,37.5008911228873,139.936900952322,Z003020,0,S0702000313,,,,,,
S0702000314,力神堂前,37.5045712459985,139.934678745195,0,1,,,,,,,
S070200031400000,力神堂前,37.5045712459985,139.934678745195,Z003030,0,S0702000314,,,,,,
S0702000315,滝沢妙国寺入口,37.5047884543714,139.947142977828,0,1,,,,,,,
S070200031500000,滝沢妙国寺入口,37.5047884543714,139.947142977828,Z003040,0,S0702000315,,,,,,
S0702000316,滝沢,37.5056825287366,139.95130925732,0,1,,,,,,,
S070200031600000,滝沢,37.5056825287366,139.95130925732,Z003050,0,S0702000316,,,,,,
S0702000317,滝沢坂下,37.506394313346,139.954468684379,0,1,,,,,,,
S070200031700000,滝沢坂下,37.506394313346,139.954468684379,Z003060,0,S0702000317,,,,,,
S0702000318,戸の口第三発電所,37.5127912440495,139.957072340256,0,1,,,,,,,
S070200031800000,戸の口第三発電所,37.5127912440495,139.957072340256,Z003070,0,S0702000318,,,,,,
S0702000319,八幡苗畑,37.5165149587347,139.965925600203,0,1,,,,,,,
S070200031900000,八幡苗畑,37.5165149587347,139.965925600203,Z003080,0,S0702000319,,,,,,
S0702000320,石ヶ森,37.5199174762779,139.971862450478,0,1,,,,,,,
S070200032000000,石ヶ森,37.5199174762779,139.971862450478,Z003090,0,S0702000320,,,,,,
S0702000321,金堀,37.5118715661901,139.977834547211,0,1,,,,,,,
S070200032100000,金堀,37.5118715661901,139.977834547211,Z003100,0,S0702000321,,,,,,
S0702000322,下柳原,37.5222863074459,139.931379592355,0,1,,,,,,,
S070200032200000,下柳原,37.5222863074459,139.931379592355,Z003110,0,S0702000322,,,,,,
S0702000323,中前田,37.5283794069321,139.931448750488,0,1,,,,,,,
S070200032300000,中前田,37.5283794069321,139.931448750488,Z003120,0,S0702000323,,,,,,
S0702000324,槻の木,37.5306013908812,139.931413928842,0,1,,,,,,,
S070200032400000,槻の木,37.5306013908812,139.931413928842,Z003130,0,S0702000324,,,,,,
S0702000325,藤倉,37.5329969661611,139.931309660527,0,1,,,,,,,
S070200032500000,藤倉,37.5329969661611,139.931309660527,Z003140,0,S0702000325,,,,,,
S0702000326,田中原,37.5397062840058,139.929365068637,0,1,,,,,,,
S070200032600000,田中原,37.5397062840058,139.929365068637,Z003150,0,S0702000326,,,,,,
S0702000327,六丁,37.5446796940018,139.928427417498,0,1,,,,,,,
S070200032700000,六丁,37.5446796940018,139.928427417498,Z003160,0,S0702000327,,,,,,
S0702000328,沢目,37.548134194105,139.928913329186,0,1,,,,,,,
S070200032800000,沢目,37.548134194105,139.928913329186,Z003170,0,S0702000328,,,,,,
S0702000329,熊の堂,37.5613531110495,139.920024569813,0,1,,,,,,,
S070200032900000,熊の堂,37.5613531110495,139.920024569813,Z003180,0,S0702000329,,,,,,
S0702000330,大和田,37.5640437784934,139.91905230444,0,1,,,,,,,
S070200033000000,大和田,37.5640437784934,139.91905230444,Z003190,0,S0702000330,,,,,,
S0702000331,大和田鍛冶屋前,37.5680190234817,139.917663347855,0,1,,,,,,,
S070200033100000,大和田鍛冶屋前,37.5680190234817,139.917663347855,Z003200,0,S0702000331,,,,,,
S0702000332,田斗床屋前,37.5754226993723,139.915024337219,0,1,,,,,,,
S070200033200000,田斗床屋前,37.5754226993723,139.915024337219,Z003210,0,S0702000332,,,,,,
S0702000333,田斗,37.5770631385988,139.914434032929,0,1,,,,,,,
S070200033300000,田斗,37.5770631385988,139.914434032929,Z003220,0,S0702000333,,,,,,
S0702000334,島,37.5802051399852,139.913079834048,0,1,,,,,,,
S070200033400000,島,37.5802051399852,139.913079834048,Z003230,0,S0702000334,,,,,,
S0702000335,金川大寺別,37.5833992373264,139.912767212933,0,1,,,,,,,
S070200033500000,金川大寺別,37.5833992373264,139.912767212933,Z003240,0,S0702000335,,,,,,
S0702000336,金川,37.5867929260707,139.910163106266,0,1,,,,,,,
S070200033600000,金川,37.5867929260707,139.910163106266,Z003250,0,S0702000336,,,,,,
S0702000337,塩川別,37.5897786953808,139.908878353257,0,1,,,,,,,
S070200033700000,塩川別,37.5897786953808,139.908878353257,Z003260,0,S0702000337,,,,,,
S0702000338,江添,37.5929815087325,139.910648892069,0,1,,,,,,,
S070200033800000,江添,37.5929815087325,139.910648892069,Z003270,0,S0702000338,,,,,,
S0702000339,深沢,37.5974862770747,139.913044319035,0,1,,,,,,,
S070200033900000,深沢,37.5974862770747,139.913044319035,Z003280,0,S0702000339,,,,,,
S0702000340,竹屋,37.6019823275871,139.913252428057,0,1,,,,,,,
S070200034000000,竹屋,37.6019823275871,139.913252428057,Z003290,0,S0702000340,,,,,,
S0702000341,南屋敷,37.6077803324836,139.914050705892,0,1,,,,,,,
S070200034100000,南屋敷,37.6077803324836,139.914050705892,Z003300,0,S0702000341,,,,,,
S0702000342,中屋敷,37.6105057396598,139.914293615778,0,1,,,,,,,
S070200034200000,中屋敷,37.6105057396598,139.914293615778,Z003310,0,S0702000342,,,,,,
S0702000343,常世,37.613309268938,139.914848996116,0,1,,,,,,,
S070200034300000,常世,37.613309268938,139.914848996116,Z003320,0,S0702000343,,,,,,
S0702000344,諏訪殿,37.6203832105608,139.917452620823,0,1,,,,,,,
S070200034400000,諏訪殿,37.6203832105608,139.917452620823,Z003330,0,S0702000344,,,,,,
S0702000345,金沢（喜多方市）,37.6221191566121,139.918632998414,0,1,,,,,,,
S070200034500000,金沢（喜多方市）,37.6221191566121,139.918632998414,Z003340,0,S0702000345,,,,,,
S0702000346,辻,37.6253393334627,139.920646571798,0,1,,,,,,,
S070200034600000,辻,37.6253393334627,139.920646571798,Z003350,0,S0702000346,,,,,,
S0702000347,小沼,37.6327864717664,139.921687809075,0,1,,,,,,,
S070200034700000,小沼,37.6327864717664,139.921687809075,Z003360,0,S0702000347,,,,,,
S0702000348,高柳,37.6392615239656,139.924569216066,0,1,,,,,,,
S070200034800000,高柳,37.6392615239656,139.924569216066,Z003370,0,S0702000348,,,,,,
S0702000349,熊倉南角,37.6406676065882,139.923597009839,0,1,,,,,,,
S070200034900000,熊倉南角,37.6406676065882,139.923597009839,Z003380,0,S0702000349,,,,,,
S0702000350,北山別,37.6419782466634,139.924534371641,0,1,,,,,,,
S070200035000000,北山別,37.6419782466634,139.924534371641,Z003390,0,S0702000350,,,,,,
S0702000351,熊倉学校前,37.6428027724357,139.922312295994,0,1,,,,,,,
S070200035100000,熊倉学校前,37.6428027724357,139.922312295994,Z003400,0,S0702000351,,,,,,
S0702000352,中里,37.6446079529705,139.911896411234,0,1,,,,,,,
S070200035200000,中里,37.6446079529705,139.911896411234,Z003410,0,S0702000352,,,,,,
S0702000353,関柴,37.646543329732,139.901584678496,0,1,,,,,,,
S070200035300000,関柴,37.646543329732,139.901584678496,Z003420,0,S0702000353,,,,,,
S0702000354,上勝,37.6481749977666,139.895751754449,0,1,,,,,,,
S070200035400000,上勝,37.6481749977666,139.895751754449,Z003430,0,S0702000354,,,,,,
S0702000355,下台団地入口,37.6487564727544,139.892314513134,0,1,,,,,,,
S070200035500000,下台団地入口,37.6487564727544,139.892314513134,Z003440,0,S0702000355,,,,,,
S0702000356,希望ヶ丘入口［喜多方］,37.6480272409644,139.884120782751,0,1,,,,,,,
S070200035600000,希望ヶ丘入口［喜多方］,37.6480272409644,139.884120782751,Z003450,0,S0702000356,,,,,,
S0702000357,県立南会津病院,37.2058327909525,139.760227822453,0,1,,,,,,,
S070200035700000,県立南会津病院,37.2058327909525,139.760227822453,Z003460,0,S0702000357,,,,,,
S0702000358,高野入口,37.204322521878,139.759429347198,0,1,,,,,,,
S070200035800000,高野入口,37.204322521878,139.759429347198,Z003470,0,S0702000358,,,,,,
S070200035800001,高野入口,37.204322521878,139.759429347198,Z003471,0,S0702000358,,,,,,
S0702000359,西町,37.2031422047648,139.765852479223,0,1,,,,,,,
S070200035900000,西町,37.2031422047648,139.765852479223,Z003480,0,S0702000359,,,,,,
S0702000360,鴫山城址入口,37.2013976979386,139.771477092433,0,1,,,,,,,
S070200036000000,鴫山城址入口,37.2013976979386,139.771477092433,Z003500,0,S0702000360,,,,,,
S0702000361,姫川橋,37.2570184333932,139.867924854714,0,1,,,,,,,
S070200036100000,姫川橋,37.2570184333932,139.867924854714,Z003530,0,S0702000361,,,,,,
S0702000362,成岡下,37.2586328119083,139.866084655426,0,1,,,,,,,
S070200036200000,成岡下,37.2586328119083,139.866084655426,Z003540,0,S0702000362,,,,,,
S0702000363,萩原,37.2598477735506,139.85542576247,0,1,,,,,,,
S070200036300000,萩原,37.2598477735506,139.85542576247,Z003550,0,S0702000363,,,,,,
S0702000364,板倉,37.2627727539384,139.852335606641,0,1,,,,,,,
S070200036400000,板倉,37.2627727539384,139.852335606641,Z003560,0,S0702000364,,,,,,
S0702000365,小池,37.2651335743262,139.850148179597,0,1,,,,,,,
S070200036500000,小池,37.2651335743262,139.850148179597,Z003570,0,S0702000365,,,,,,
S0702000366,倉谷,37.2692910587401,139.846884370326,0,1,,,,,,,
S070200036600000,倉谷,37.2692910587401,139.846884370326,Z003580,0,S0702000366,,,,,,
S0702000367,水抜,37.2700548301542,139.844835894169,0,1,,,,,,,
S070200036700000,水抜,37.2700548301542,139.844835894169,Z003590,0,S0702000367,,,,,,
S0702000368,安張,37.2700370931195,139.823205746906,0,1,,,,,,,
S070200036800000,安張,37.2700370931195,139.823205746906,Z003600,0,S0702000368,,,,,,
S0702000369,沢口,37.269273152523,139.815567527541,0,1,,,,,,,
S070200036900000,沢口,37.269273152523,139.815567527541,Z003610,0,S0702000369,,,,,,
S0702000370,磯上,37.2657665164434,139.811748561727,0,1,,,,,,,
S070200037000000,磯上,37.2657665164434,139.811748561727,Z003620,0,S0702000370,,,,,,
S0702000371,志源行,37.2640566098801,139.810602902276,0,1,,,,,,,
S070200037100000,志源行,37.2640566098801,139.810602902276,Z003630,0,S0702000371,,,,,,
S0702000372,石井,37.2568089459467,139.800569347063,0,1,,,,,,,
S070200037200000,石井,37.2568089459467,139.800569347063,Z003640,0,S0702000372,,,,,,
S0702000373,日影,37.2557760242279,139.797930724872,0,1,,,,,,,
S070200037300000,日影,37.2557760242279,139.797930724872,Z003650,0,S0702000373,,,,,,
S0702000374,原（下郷町）,37.2568782441009,139.792618615284,0,1,,,,,,,
S070200037400000,原（下郷町）,37.2568782441009,139.792618615284,Z003660,0,S0702000374,,,,,,
S0702000375,戸赤,37.2562877747701,139.778036520169,0,1,,,,,,,
S070200037500000,戸赤,37.2562877747701,139.778036520169,Z003670,0,S0702000375,,,,,,
S0702000376,湖南高校,37.3890220406255,140.087622752888,0,1,,,,,,,
S070200037600000,湖南高校,37.3890220406255,140.087622752888,Z003680,0,S0702000376,,,,,,
S0702000377,行政センター前,37.3889960381274,140.089705914414,0,1,,,,,,,
S070200037700000,行政センター前,37.3889960381274,140.089705914414,Z003690,0,S0702000377,,,,,,
S0702000378,福良山崎前,37.3867046456611,140.091372548179,0,1,,,,,,,
S070200037800000,福良山崎前,37.3867046456611,140.091372548179,Z003700,0,S0702000378,,,,,,
S0702000379,湖南中学校前,37.3829814718749,140.113488938429,0,1,,,,,,,
S070200037900000,湖南中学校前,37.3829814718749,140.113488938429,Z003710,0,S0702000379,,,,,,
S0702000380,三代,37.3821048865312,140.116752596637,0,1,,,,,,,
S070200038000000,三代,37.3821048865312,140.116752596637,Z003720,0,S0702000380,,,,,,
S0702000381,中野局前,37.393588266737,140.130119013352,0,1,,,,,,,
S070200038100000,中野局前,37.393588266737,140.130119013352,Z003730,0,S0702000381,,,,,,
S0702000382,中野三森別,37.3952808182908,140.131507708975,0,1,,,,,,,
S070200038200000,中野三森別,37.3952808182908,140.131507708975,Z003740,0,S0702000382,,,,,,
S0702000383,中野亀の湯前,37.3975635462896,140.130709059079,0,1,,,,,,,
S070200038300000,中野亀の湯前,37.3975635462896,140.130709059079,Z003750,0,S0702000383,,,,,,
S0702000384,丸金前,37.3993602188052,140.130118747595,0,1,,,,,,,
S070200038400000,丸金前,37.3993602188052,140.130118747595,Z003760,0,S0702000384,,,,,,
S0702000385,小櫃,37.4028580879376,140.128938129023,0,1,,,,,,,
S070200038500000,小櫃,37.4028580879376,140.128938129023,Z003770,0,S0702000385,,,,,,
S0702000386,舟津大林前,37.4087341609676,140.126958856159,0,1,,,,,,,
S070200038600000,舟津大林前,37.4087341609676,140.126958856159,Z003780,0,S0702000386,,,,,,
S0702000387,舟津公園入口,37.4107912344261,140.127062919461,0,1,,,,,,,
S070200038700000,舟津公園入口,37.4107912344261,140.127062919461,Z003790,0,S0702000387,,,,,,
S0702000388,湖南民俗館前,37.413594917727,140.136437011851,0,1,,,,,,,
S070200038800000,湖南民俗館前,37.413594917727,140.136437011851,Z003800,0,S0702000388,,,,,,
S0702000389,鈴木医院前,37.4152180631892,140.139596396949,0,1,,,,,,,
S070200038900000,鈴木医院前,37.4152180631892,140.139596396949,Z003810,0,S0702000389,,,,,,
S0702000390,山田原入口,37.3934860364958,140.24035291879,0,1,,,,,,,
S070200039000000,山田原入口,37.3934860364958,140.24035291879,Z003820,0,S0702000390,,,,,,
S0702000391,大沢（郡山市）,37.3980084072541,140.256670799808,0,1,,,,,,,
S070200039100000,大沢（郡山市）,37.3980084072541,140.256670799808,Z003830,0,S0702000391,,,,,,
S0702000392,多田野小学校,37.3961599316697,140.272988974159,0,1,,,,,,,
S070200039200000,多田野小学校,37.3961599316697,140.272988974159,Z003840,0,S0702000392,,,,,,
S0702000393,白石,37.3927837452875,140.28378684398,0,1,,,,,,,
S070200039300000,白石,37.3927837452875,140.28378684398,Z003850,0,S0702000393,,,,,,
S0702000394,大槻車庫前,37.3877240241309,140.312499970142,0,1,,,,,,,
S070200039400000,大槻車庫前,37.3877240241309,140.312499970142,Z003860,0,S0702000394,,,,,,
S0702000395,希望ヶ丘,37.408815962031,140.337913555018,0,1,,,,,,,
S070200039500000,希望ヶ丘,37.408815962031,140.337913555018,Z003870,0,S0702000395,,,,,,
S0702000396,湯川橋北,37.4868818802166,139.918326751084,0,1,,,,,,,
S070200039600000,湯川橋北,37.4868818802166,139.918326751084,Z003880,0,S0702000396,,,,,,
S0702000397,湯川大日堂前,37.4892340555415,139.91811832675,0,1,,,,,,,
S070200039700000,湯川大日堂前,37.4892340555415,139.91811832675,Z003890,0,S0702000397,,,,,,
S0702000398,川原町,37.490223466336,139.914299153926,0,1,,,,,,,
S070200039800000,川原町,37.490223466336,139.914299153926,Z003900,0,S0702000398,,,,,,
S0702000399,材木町一丁目,37.4893901833189,139.912077154608,0,1,,,,,,,
S070200039900000,材木町一丁目,37.4893901833189,139.912077154608,Z003910,0,S0702000399,,,,,,
S0702000400,西若松駅西,37.4869078044907,139.911764794855,0,1,,,,,,,
S070200040000000,西若松駅西,37.4869078044907,139.911764794855,Z003920,0,S0702000400,,,,,,
S0702000401,住吉町,37.4862567772715,139.908605364998,0,1,,,,,,,
S070200040100000,住吉町,37.4862567772715,139.908605364998,Z003930,0,S0702000401,,,,,,
S0702000402,幕の内,37.4860744274831,139.904161298027,0,1,,,,,,,
S070200040200000,幕の内,37.4860744274831,139.904161298027,Z003940,0,S0702000402,,,,,,
S0702000403,西飯寺,37.4831840879863,139.902807376892,0,1,,,,,,,
S070200040300000,西飯寺,37.4831840879863,139.902807376892,Z003950,0,S0702000403,,,,,,
S0702000404,オリンパス前,37.4801982932078,139.902633917673,0,1,,,,,,,
S070200040400000,オリンパス前,37.4801982932078,139.902633917673,Z003960,0,S0702000404,,,,,,
S0702000405,高田橋北,37.4777853556418,139.902564590094,0,1,,,,,,,
S070200040500000,高田橋北,37.4777853556418,139.902564590094,Z003970,0,S0702000405,,,,,,
S0702000406,三本松西,37.474894882133,139.893537695089,0,1,,,,,,,
S070200040600000,三本松西,37.474894882133,139.893537695089,Z003980,0,S0702000406,,,,,,
S0702000407,東小松,37.4734626569363,139.888572895582,0,1,,,,,,,
S070200040700000,東小松,37.4734626569363,139.888572895582,Z003990,0,S0702000407,,,,,,
S0702000408,両堂前,37.4726553545873,139.883017838542,0,1,,,,,,,
S070200040800000,両堂前,37.4726553545873,139.883017838542,Z004000,0,S0702000408,,,,,,
S0702000409,川南,37.4722734012679,139.880170870346,0,1,,,,,,,
S070200040900000,川南,37.4722734012679,139.880170870346,Z004010,0,S0702000409,,,,,,
S0702000410,松の前,37.4715268635857,139.875032442575,0,1,,,,,,,
S070200041000000,松の前,37.4715268635857,139.875032442575,Z004020,0,S0702000410,,,,,,
S0702000411,新在家,37.4710494198142,139.871352214644,0,1,,,,,,,
S070200041100000,新在家,37.4710494198142,139.871352214644,Z004030,0,S0702000411,,,,,,
S0702000412,大島前,37.4706066181462,139.863297348427,0,1,,,,,,,
S070200041200000,大島前,37.4706066181462,139.863297348427,Z004040,0,S0702000412,,,,,,
S0702000413,高田工業団地,37.4704156008585,139.85954766863,0,1,,,,,,,
S070200041300000,高田工業団地,37.4704156008585,139.85954766863,Z004050,0,S0702000413,,,,,,
S0702000414,前川原,37.4701638043506,139.854548095434,0,1,,,,,,,
S070200041400000,前川原,37.4701638043506,139.854548095434,Z004060,0,S0702000414,,,,,,
S0702000415,安田前,37.4698946685991,139.850694261219,0,1,,,,,,,
S070200041500000,安田前,37.4698946685991,139.850694261219,Z004070,0,S0702000415,,,,,,
S0702000416,七号線入口,37.4696081378165,139.844791986813,0,1,,,,,,,
S070200041600000,七号線入口,37.4696081378165,139.844791986813,Z004080,0,S0702000416,,,,,,
S0702000417,高田駅前,37.4685404866739,139.841528418122,0,1,,,,,,,
S070200041700000,高田駅前,37.4685404866739,139.841528418122,Z004090,0,S0702000417,,,,,,
S0702000418,西裏入口,37.4659279055552,139.840764712959,0,1,,,,,,,
S070200041800000,西裏入口,37.4659279055552,139.840764712959,Z004100,0,S0702000418,,,,,,
S0702000419,厚生病院前（高田）,37.4653810866179,139.840625860781,0,1,,,,,,,
S070200041900000,厚生病院前（高田）,37.4653810866179,139.840625860781,Z004110,0,S0702000419,,,,,,
S0702000420,大沼高校入口,37.4631851245713,139.839688539742,0,1,,,,,,,
S070200042000000,大沼高校入口,37.4631851245713,139.839688539742,Z004130,0,S0702000420,,,,,,
S0702000421,公民館前［会津美里町］,37.4616661801143,139.839133100258,0,1,,,,,,,
S070200042100000,公民館前［会津美里町］,37.4616661801143,139.839133100258,Z004140,0,S0702000421,,,,,,
S0702000422,まってらん処前,37.4600083610162,139.838542947829,0,1,,,,,,,
S070200042200000,まってらん処前,37.4600083610162,139.838542947829,Z004150,0,S0702000422,,,,,,
S0702000423,横町,37.4586977294305,139.838091656769,0,1,,,,,,,
S070200042300000,横町,37.4586977294305,139.838091656769,Z004160,0,S0702000423,,,,,,
S0702000427,高田郵便局前,37.4566059259419,139.837327927628,0,1,,,,,,,
S070200042700000,高田郵便局前,37.4566059259419,139.837327927628,Z004200,0,S0702000427,,,,,,
S0702000428,大けやき前［会津美里町］,37.4548265835739,139.836251710051,0,1,,,,,,,
S070200042800000,大けやき前［会津美里町］,37.4548265835739,139.836251710051,Z004210,0,S0702000428,,,,,,
S0702000429,竹原入口,37.4534291805785,139.837223915878,0,1,,,,,,,
S070200042900000,竹原入口,37.4534291805785,139.837223915878,Z004220,0,S0702000429,,,,,,
S0702000430,相田町,37.4512505674777,139.835696365281,0,1,,,,,,,
S070200043000000,相田町,37.4512505674777,139.835696365281,Z004230,0,S0702000430,,,,,,
S0702000431,永井野下町,37.4490459112506,139.833925780509,0,1,,,,,,,
S070200043100000,永井野下町,37.4490459112506,139.833925780509,Z004240,0,S0702000431,,,,,,
S0702000432,永井野,37.4471189994547,139.831946866918,0,1,,,,,,,
S070200043200000,永井野,37.4471189994547,139.831946866918,Z004250,0,S0702000432,,,,,,
S0702000433,西金上入口,37.5590342061767,139.83732321153,0,1,,,,,,,
S070200043300000,西金上入口,37.5590342061767,139.83732321153,Z004260,0,S0702000433,,,,,,
S0702000434,金上倉庫前,37.5585916367558,139.842565852069,0,1,,,,,,,
S070200043400000,金上倉庫前,37.5585916367558,139.842565852069,Z004270,0,S0702000434,,,,,,
S0702000435,金上谷地,37.5582358375318,139.846315557043,0,1,,,,,,,
S070200043500000,金上谷地,37.5582358375318,139.846315557043,Z004280,0,S0702000435,,,,,,
S0702000436,村田,37.5574895211816,139.853849687927,0,1,,,,,,,
S070200043600000,村田,37.5574895211816,139.853849687927,Z004290,0,S0702000436,,,,,,
S0702000437,道の駅あいづ,37.5570904123545,139.862668418361,0,1,,,,,,,
S070200043700000,道の駅あいづ,37.5570904123545,139.862668418361,Z004300,0,S0702000437,,,,,,
S0702000438,亀ヶ代,37.5544172672836,139.872980185068,0,1,,,,,,,
S070200043800000,亀ヶ代,37.5544172672836,139.872980185068,Z004310,0,S0702000438,,,,,,
S0702000439,熊川,37.552976626239,139.883118298333,0,1,,,,,,,
S070200043900000,熊川,37.552976626239,139.883118298333,Z004320,0,S0702000439,,,,,,
S0702000440,熊の屋東,37.5543481765143,139.892804930711,0,1,,,,,,,
S070200044000000,熊の屋東,37.5543481765143,139.892804930711,Z004330,0,S0702000440,,,,,,
S0702000441,荻野駅前,37.6170121194411,139.723024478686,0,1,,,,,,,
S070200044100000,荻野駅前,37.6170121194411,139.723024478686,Z004340,0,S0702000441,,,,,,
S0702000442,荻野入口,37.615067923583,139.725350763903,0,1,,,,,,,
S070200044200000,荻野入口,37.615067923583,139.725350763903,Z004350,0,S0702000442,,,,,,
S070200044200001,荻野入口,37.615067923583,139.725350763903,Z004351,0,S0702000442,,,,,,
S0702000443,高郷中学校西口,37.6092786777505,139.729100719049,0,1,,,,,,,
S070200044300000,高郷中学校西口,37.6092786777505,139.729100719049,Z004360,0,S0702000443,,,,,,
S070200044300001,高郷中学校西口,37.6092786777505,139.729100719049,Z004361,0,S0702000443,,,,,,
S0702000444,高郷中学校入口,37.607160922094,139.733301856553,0,1,,,,,,,
S070200044400000,高郷中学校入口,37.607160922094,139.733301856553,Z004370,0,S0702000444,,,,,,
S070200044400001,高郷中学校入口,37.607160922094,139.733301856553,Z004371,0,S0702000444,,,,,,
S0702000445,塩坪,37.6060847156341,139.737155752713,0,1,,,,,,,
S070200044500000,塩坪,37.6060847156341,139.737155752713,Z004380,0,S0702000445,,,,,,
S070200044500001,塩坪,37.6060847156341,139.737155752713,Z004381,0,S0702000445,,,,,,
S0702000446,永農,37.6069788785321,139.746391055667,0,1,,,,,,,
S070200044600000,永農,37.6069788785321,139.746391055667,Z004390,0,S0702000446,,,,,,
S070200044600001,永農,37.6069788785321,139.746391055667,Z004391,0,S0702000446,,,,,,
S0702000447,高郷総合支所前,37.6029690508662,139.755557145738,0,1,,,,,,,
S070200044700000,高郷総合支所前,37.6029690508662,139.755557145738,Z004400,0,S0702000447,,,,,,
S070200044700001,高郷総合支所前,37.6029690508662,139.755557145738,Z004401,0,S0702000447,,,,,,
S0702000448,夏井,37.6101645303121,139.759480099723,0,1,,,,,,,
S070200044800000,夏井,37.6101645303121,139.759480099723,Z004410,0,S0702000448,,,,,,
S070200044800001,夏井,37.6101645303121,139.759480099723,Z004411,0,S0702000448,,,,,,
S070200044800002,夏井,37.6101645303121,139.759480099723,Z004412,0,S0702000448,,,,,,
S0702000449,上川井,37.6238435481465,139.755208991226,0,1,,,,,,,
S070200044900000,上川井,37.6238435481465,139.755208991226,Z004420,0,S0702000449,,,,,,
S070200044900001,上川井,37.6238435481465,139.755208991226,Z004421,0,S0702000449,,,,,,
S070200044900002,上川井,37.6238435481465,139.755208991226,Z004422,0,S0702000449,,,,,,
S0702000450,下川井,37.6279576295734,139.751667429244,0,1,,,,,,,
S070200045000000,下川井,37.6279576295734,139.751667429244,Z004430,0,S0702000450,,,,,,
S070200045000001,下川井,37.6279576295734,139.751667429244,Z004431,0,S0702000450,,,,,,
S0702000451,西羽賀,37.6017799704442,139.757189009411,0,1,,,,,,,
S070200045100000,西羽賀,37.6017799704442,139.757189009411,Z004440,0,S0702000451,,,,,,
S0702000452,西羽賀駐在所,37.6001308479521,139.757570998069,0,1,,,,,,,
S070200045200000,西羽賀駐在所,37.6001308479521,139.757570998069,Z004450,0,S0702000452,,,,,,
S0702000453,東羽賀,37.5975878184581,139.763369244739,0,1,,,,,,,
S070200045300000,東羽賀,37.5975878184581,139.763369244739,Z004460,0,S0702000453,,,,,,
S0702000454,西海枝,37.597570621716,139.772674028332,0,1,,,,,,,
S070200045400000,西海枝,37.597570621716,139.772674028332,Z004470,0,S0702000454,,,,,,
S0702000455,大原（喜多方市）,37.5933870529414,139.773333888393,0,1,,,,,,,
S070200045500000,大原（喜多方市）,37.5933870529414,139.773333888393,Z004480,0,S0702000455,,,,,,
S0702000456,田中,37.5932741820113,139.7712854526,0,1,,,,,,,
S070200045600000,田中,37.5932741820113,139.7712854526,Z004490,0,S0702000456,,,,,,
S0702000457,窪倉,37.5897935823877,139.767327608233,0,1,,,,,,,
S070200045700000,窪倉,37.5897935823877,139.767327608233,Z004500,0,S0702000457,,,,,,
S0702000458,窪,37.5818170632317,139.77066103202,0,1,,,,,,,
S070200045800000,窪,37.5818170632317,139.77066103202,Z004510,0,S0702000458,,,,,,
S0702000459,さかの下,37.5780762294222,139.775556631033,0,1,,,,,,,
S070200045900000,さかの下,37.5780762294222,139.775556631033,Z004520,0,S0702000459,,,,,,
S0702000460,気多宮,37.5723131716428,139.78784754232,0,1,,,,,,,
S070200046000000,気多宮,37.5723131716428,139.78784754232,Z004530,0,S0702000460,,,,,,
S0702000461,シモン工場前,37.5739797661776,139.793923349877,0,1,,,,,,,
S070200046100000,シモン工場前,37.5739797661776,139.793923349877,Z004540,0,S0702000461,,,,,,
S0702000462,塔寺立木観音前,37.5736847534505,139.799339580315,0,1,,,,,,,
S070200046200000,塔寺立木観音前,37.5736847534505,139.799339580315,Z004550,0,S0702000462,,,,,,
S0702000463,塔寺白山前,37.5724870243272,139.802742130666,0,1,,,,,,,
S070200046300000,塔寺白山前,37.5724870243272,139.802742130666,Z004560,0,S0702000463,,,,,,
S0702000464,紋平茶屋前,37.5696054796713,139.807984883501,0,1,,,,,,,
S070200046400000,紋平茶屋前,37.5696054796713,139.807984883501,Z004570,0,S0702000464,,,,,,
S0702000465,稲荷塚,37.5675744729883,139.809477908584,0,1,,,,,,,
S070200046500000,稲荷塚,37.5675744729883,139.809477908584,Z004580,0,S0702000465,,,,,,
S070200046500001,稲荷塚,37.5675744729883,139.809477908584,Z004581,0,S0702000465,,,,,,
S0702000466,坂下中西口,37.5646147237616,139.809686360892,0,1,,,,,,,
S070200046600000,坂下中西口,37.5646147237616,139.809686360892,Z004590,0,S0702000466,,,,,,
S070200046600001,坂下中西口,37.5646147237616,139.809686360892,Z004591,0,S0702000466,,,,,,
S0702000467,中岩田団地前,37.5613077991503,139.810450338607,0,1,,,,,,,
S070200046700000,中岩田団地前,37.5613077991503,139.810450338607,Z004600,0,S0702000467,,,,,,
S070200046700001,中岩田団地前,37.5613077991503,139.810450338607,Z004601,0,S0702000467,,,,,,
S0702000468,坂下厚生病院,37.559945163781,139.814234809277,0,1,,,,,,,
S070200046800000,坂下厚生病院,37.559945163781,139.814234809277,Z004610,0,S0702000468,,,,,,
S0702000469,坂下南小前,37.5591033430316,139.820137135635,0,1,,,,,,,
S070200046900000,坂下南小前,37.5591033430316,139.820137135635,Z004620,0,S0702000469,,,,,,
S070200046900001,坂下南小前,37.5591033430316,139.820137135635,Z004621,0,S0702000469,,,,,,
S0702000470,上開津,37.5332993578111,139.851420447996,0,1,,,,,,,
S070200047000000,上開津,37.5332993578111,139.851420447996,Z004660,0,S0702000470,,,,,,
S0702000471,中開津,37.5367451370527,139.849545445046,0,1,,,,,,,
S070200047100000,中開津,37.5367451370527,139.849545445046,Z004670,0,S0702000471,,,,,,
S0702000472,新開津,37.5448692444348,139.848191016775,0,1,,,,,,,
S070200047200000,新開津,37.5448692444348,139.848191016775,Z004680,0,S0702000472,,,,,,
S0702000473,子育てふれあい交流センター前,37.5520472275825,139.844267400993,0,1,,,,,,,
S070200047300000,子育てふれあい交流センター前,37.5520472275825,139.844267400993,Z004690,0,S0702000473,,,,,,
S070200047300001,子育てふれあい交流センター前,37.5520472275825,139.844267400993,Z004691,0,S0702000473,,,,,,
S0702000474,鶴沼球場前,37.5543471783982,139.835656899072,0,1,,,,,,,
S070200047400000,鶴沼球場前,37.5543471783982,139.835656899072,Z004700,0,S0702000474,,,,,,
S070200047400001,鶴沼球場前,37.5543471783982,139.835656899072,Z004701,0,S0702000474,,,,,,
S0702000475,海老沢,37.551578622312,139.849683639424,0,1,,,,,,,
S070200047500000,海老沢,37.551578622312,139.849683639424,Z004630,0,S0702000475,,,,,,
S0702000476,細工名,37.5470566444936,139.855863889939,0,1,,,,,,,
S070200047600000,細工名,37.5470566444936,139.855863889939,Z004640,0,S0702000476,,,,,,
S0702000477,束原,37.5409722507093,139.857287662973,0,1,,,,,,,
S070200047700000,束原,37.5409722507093,139.857287662973,Z004650,0,S0702000477,,,,,,
S0702000478,新開津入口,37.546093026993,139.845621729356,0,1,,,,,,,
S070200047800000,新開津入口,37.546093026993,139.845621729356,Z004710,0,S0702000478,,,,,,
S0702000479,福原,37.5479417912185,139.845829960266,0,1,,,,,,,
S070200047900000,福原,37.5479417912185,139.845829960266,Z004720,0,S0702000479,,,,,,
S0702000480,厚生病院南口（坂下）,37.5591206082957,139.814755637324,0,1,,,,,,,
S070200048000000,厚生病院南口（坂下）,37.5591206082957,139.814755637324,Z004730,0,S0702000480,,,,,,
S070200048000001,厚生病院南口（坂下）,37.5591206082957,139.814755637324,Z004731,0,S0702000480,,,,,,
S0702000481,渡辺医院前,37.5581139364817,139.824199343831,0,1,,,,,,,
S070200048100000,渡辺医院前,37.5581139364817,139.824199343831,Z004740,0,S0702000481,,,,,,
S070200048100001,渡辺医院前,37.5581139364817,139.824199343831,Z004741,0,S0702000481,,,,,,
S0702000482,会津農林高校前,37.5549285048209,139.823713419754,0,1,,,,,,,
S070200048200000,会津農林高校前,37.5549285048209,139.823713419754,Z004750,0,S0702000482,,,,,,
S070200048200001,会津農林高校前,37.5549285048209,139.823713419754,Z004751,0,S0702000482,,,,,,
S0702000483,原（会津坂下町）,37.5510573723049,139.822637298489,0,1,,,,,,,
S070200048300000,原（会津坂下町）,37.5510573723049,139.822637298489,Z004760,0,S0702000483,,,,,,
S070200048300001,原（会津坂下町）,37.5510573723049,139.822637298489,Z004761,0,S0702000483,,,,,,
S0702000484,中村南,37.5488526451304,139.816804551081,0,1,,,,,,,
S070200048400000,中村南,37.5488526451304,139.816804551081,Z004770,0,S0702000484,,,,,,
S0702000485,寿ノ宮,37.542151972955,139.8168048596,0,1,,,,,,,
S070200048500000,寿ノ宮,37.542151972955,139.8168048596,Z004780,0,S0702000485,,,,,,
S0702000486,大江西,37.5413621747872,139.81954772373,0,1,,,,,,,
S070200048600000,大江西,37.5413621747872,139.81954772373,Z004790,0,S0702000486,,,,,,
S0702000487,樋渡入口,37.5353992242294,139.816874609193,0,1,,,,,,,
S070200048700000,樋渡入口,37.5353992242294,139.816874609193,Z004800,0,S0702000487,,,,,,
S0702000488,樋渡,37.5318925863307,139.812951485363,0,1,,,,,,,
S070200048800000,樋渡,37.5318925863307,139.812951485363,Z004810,0,S0702000488,,,,,,
S0702000489,水島,37.5341494458433,139.821908970864,0,1,,,,,,,
S070200048900000,水島,37.5341494458433,139.821908970864,Z004820,0,S0702000489,,,,,,
S0702000490,矢ノ目,37.5350956240462,139.827568179527,0,1,,,,,,,
S070200049000000,矢ノ目,37.5350956240462,139.827568179527,Z004830,0,S0702000490,,,,,,
S0702000491,金沢（会津坂下町）,37.5344099856492,139.830554074233,0,1,,,,,,,
S070200049100000,金沢（会津坂下町）,37.5344099856492,139.830554074233,Z004840,0,S0702000491,,,,,,
S0702000492,上金沢,37.5315891995964,139.835866262949,0,1,,,,,,,
S070200049200000,上金沢,37.5315891995964,139.835866262949,Z004850,0,S0702000492,,,,,,
S0702000493,上新田,37.5329259216067,139.839268696605,0,1,,,,,,,
S070200049300000,上新田,37.5329259216067,139.839268696605,Z004860,0,S0702000493,,,,,,
S0702000494,中新田,37.5357207500341,139.838608900486,0,1,,,,,,,
S070200049400000,中新田,37.5357207500341,139.838608900486,Z004870,0,S0702000494,,,,,,
S0702000495,沖,37.5455459248721,139.829268945965,0,1,,,,,,,
S070200049500000,沖,37.5455459248721,139.829268945965,Z004880,0,S0702000495,,,,,,
S0702000496,大江北,37.5461273446786,139.822672244821,0,1,,,,,,,
S070200049600000,大江北,37.5461273446786,139.822672244821,Z004890,0,S0702000496,,,,,,
S0702000497,大江,37.5417615013079,139.82319323592,0,1,,,,,,,
S070200049700000,大江,37.5417615013079,139.82319323592,Z004900,0,S0702000497,,,,,,
S0702000498,橋本金沢,37.5380207687653,139.833886964508,0,1,,,,,,,
S070200049800000,橋本金沢,37.5380207687653,139.833886964508,Z004910,0,S0702000498,,,,,,
S0702000499,羽林,37.555015412668,139.830101774095,0,1,,,,,,,
S070200049900000,羽林,37.555015412668,139.830101774095,Z004920,0,S0702000499,,,,,,
S0702000500,御池田公園前,37.5735118618926,139.839475143943,0,1,,,,,,,
S070200050000000,御池田公園前,37.5735118618926,139.839475143943,Z004930,0,S0702000500,,,,,,
S0702000501,御池田,37.572435648156,139.842912408038,0,1,,,,,,,
S070200050100000,御池田,37.572435648156,139.842912408038,Z004940,0,S0702000501,,,,,,
S0702000502,太田分,37.5764630624722,139.846766069211,0,1,,,,,,,
S070200050200000,太田分,37.5764630624722,139.846766069211,Z004950,0,S0702000502,,,,,,
S0702000503,下政所,37.5809674906301,139.829683947119,0,1,,,,,,,
S070200050300000,下政所,37.5809674906301,139.829683947119,Z004960,0,S0702000503,,,,,,
S0702000504,三谷谷地,37.5821480715225,139.838363727465,0,1,,,,,,,
S070200050400000,三谷谷地,37.5821480715225,139.838363727465,Z004970,0,S0702000504,,,,,,
S0702000505,沼越,37.5833025941289,139.845932490168,0,1,,,,,,,
S070200050500000,沼越,37.5833025941289,139.845932490168,Z004980,0,S0702000505,,,,,,
S0702000506,立川,37.5827993140097,139.85384852259,0,1,,,,,,,
S070200050600000,立川,37.5827993140097,139.85384852259,Z004990,0,S0702000506,,,,,,
S0702000507,京出,37.5716893845616,139.853467121397,0,1,,,,,,,
S070200050700000,京出,37.5716893845616,139.853467121397,Z005000,0,S0702000507,,,,,,
S0702000508,大添,37.5686775521145,139.853363102054,0,1,,,,,,,
S070200050800000,大添,37.5686775521145,139.853363102054,Z005010,0,S0702000508,,,,,,
S0702000509,中目十日町,37.5670197421121,139.853293739707,0,1,,,,,,,
S070200050900000,中目十日町,37.5670197421121,139.853293739707,Z005020,0,S0702000509,,,,,,
S0702000510,履形,37.5617598880471,139.853293981886,0,1,,,,,,,
S070200051000000,履形,37.5617598880471,139.853293981886,Z005030,0,S0702000510,,,,,,
S0702000511,宮月入口,37.6274457043912,139.761562464376,0,1,,,,,,,
S070200051100000,宮月入口,37.6274457043912,139.761562464376,Z005040,0,S0702000511,,,,,,
S0702000512,河原田,37.633217699513,139.764027271672,0,1,,,,,,,
S070200051200000,河原田,37.633217699513,139.764027271672,Z005050,0,S0702000512,,,,,,
S0702000513,山都駅前,37.6390764957576,139.766769829682,0,1,,,,,,,
S070200051300000,山都駅前,37.6390764957576,139.766769829682,Z005060,0,S0702000513,,,,,,
S0702000514,坂下警察署前,37.5644586523784,139.818956431541,0,1,,,,,,,
S070200051400000,坂下警察署前,37.5644586523784,139.818956431541,Z005070,0,S0702000514,,,,,,
S0702000515,坂下古町,37.5635907878963,139.824581004387,0,1,,,,,,,
S070200051500000,坂下古町,37.5635907878963,139.824581004387,Z005080,0,S0702000515,,,,,,
S0702000516,七折,37.5679559066324,139.782570403442,0,1,,,,,,,
S070200051600000,七折,37.5679559066324,139.782570403442,Z005090,0,S0702000516,,,,,,
S0702000517,大沢（会津坂下町）,37.5579133360474,139.768717849645,0,1,,,,,,,
S070200051700000,大沢（会津坂下町）,37.5579133360474,139.768717849645,Z005100,0,S0702000517,,,,,,
S0702000518,藤街道別,37.5569497518981,139.760385252696,0,1,,,,,,,
S070200051800000,藤街道別,37.5569497518981,139.760385252696,Z005110,0,S0702000518,,,,,,
S0702000519,坂本駅前,37.5533215925488,139.756080221734,0,1,,,,,,,
S070200051900000,坂本駅前,37.5533215925488,139.756080221734,Z005120,0,S0702000519,,,,,,
S0702000520,八坂野入口,37.5488079578117,139.742991238823,0,1,,,,,,,
S070200052000000,八坂野入口,37.5488079578117,139.742991238823,Z005130,0,S0702000520,,,,,,
S0702000521,八坂野,37.5480788400227,139.741324744131,0,1,,,,,,,
S070200052100000,八坂野,37.5480788400227,139.741324744131,Z005140,0,S0702000521,,,,,,
S0702000522,下原,37.5468635333451,139.732228333318,0,1,,,,,,,
S070200052200000,下原,37.5468635333451,139.732228333318,Z005150,0,S0702000522,,,,,,
S0702000523,根柄巻,37.5454660369656,139.727853760972,0,1,,,,,,,
S070200052300000,根柄巻,37.5454660369656,139.727853760972,Z005160,0,S0702000523,,,,,,
S0702000524,細越入口,37.5428100152638,139.724659704093,0,1,,,,,,,
S070200052400000,細越入口,37.5428100152638,139.724659704093,Z005170,0,S0702000524,,,,,,
S0702000525,柳津駅前,37.536768969285,139.72320177001,0,1,,,,,,,
S070200052500000,柳津駅前,37.536768969285,139.72320177001,Z005180,0,S0702000525,,,,,,
S0702000526,岩坂,37.5340869693406,139.723479648207,0,1,,,,,,,
S070200052600000,岩坂,37.5340869693406,139.723479648207,Z005190,0,S0702000526,,,,,,
S0702000527,柳津虚空蔵下,37.5324986175793,139.724625459521,0,1,,,,,,,
S070200052700000,柳津虚空蔵下,37.5324986175793,139.724625459521,Z005200,0,S0702000527,,,,,,
S0702000528,一王町,37.5296256749329,139.725424136592,0,1,,,,,,,
S070200052800000,一王町,37.5296256749329,139.725424136592,Z005210,0,S0702000528,,,,,,
S0702000529,安久津［柳津町］,37.5269696677844,139.723063343843,0,1,,,,,,,
S070200052900000,安久津［柳津町］,37.5269696677844,139.723063343843,Z005220,0,S0702000529,,,,,,
S0702000530,柳津ふれあい館,37.5260148693804,139.720806630782,0,1,,,,,,,
S070200053000000,柳津ふれあい館,37.5260148693804,139.720806630782,Z005230,0,S0702000530,,,,,,
S0702000531,若宮,37.5024444056471,139.915687364791,0,1,,,,,,,
S070200053100000,若宮,37.5024444056471,139.915687364791,Z005240,0,S0702000531,,,,,,
S0702000532,橋本,37.5049006625185,139.911243176329,0,1,,,,,,,
S070200053200000,橋本,37.5049006625185,139.911243176329,Z005250,0,S0702000532,,,,,,
S0702000533,神指農協前,37.5075565744639,139.908153032889,0,1,,,,,,,
S070200053300000,神指農協前,37.5075565744639,139.908153032889,Z005260,0,S0702000533,,,,,,
S0702000534,黒川（会津若松市）,37.5109849829298,139.905618363302,0,1,,,,,,,
S070200053400000,黒川（会津若松市）,37.5109849829298,139.905618363302,Z005270,0,S0702000534,,,,,,
S0702000535,高瀬,37.5168870530005,139.901243454863,0,1,,,,,,,
S070200053500000,高瀬,37.5168870530005,139.901243454863,Z005280,0,S0702000535,,,,,,
S0702000536,榎木壇,37.522059998612,139.894820139005,0,1,,,,,,,
S070200053600000,榎木壇,37.522059998612,139.894820139005,Z005290,0,S0702000536,,,,,,
S0702000537,ふくしの家入口,37.5258008324214,139.889924539994,0,1,,,,,,,
S070200053700000,ふくしの家入口,37.5258008324214,139.889924539994,Z005300,0,S0702000537,,,,,,
S0702000538,横沼,37.5301058438162,139.885133073022,0,1,,,,,,,
S070200053800000,横沼,37.5301058438162,139.885133073022,Z005310,0,S0702000538,,,,,,
S0702000539,高久上町,37.5372056666594,139.878709668445,0,1,,,,,,,
S070200053900000,高久上町,37.5372056666594,139.878709668445,Z005320,0,S0702000539,,,,,,
S0702000540,高久下町,37.5406514574224,139.877494332932,0,1,,,,,,,
S070200054000000,高久下町,37.5406514574224,139.877494332932,Z005330,0,S0702000540,,,,,,
S0702000541,中の目,37.5477426176173,139.872043070241,0,1,,,,,,,
S070200054100000,中の目,37.5477426176173,139.872043070241,Z005340,0,S0702000541,,,,,,
S0702000542,佐野,37.5518480133532,139.868154315269,0,1,,,,,,,
S070200054200000,佐野,37.5518480133532,139.868154315269,Z005350,0,S0702000542,,,,,,
S0702000543,田島東町,37.2013457693473,139.780018052172,0,1,,,,,,,
S070200054300000,田島東町,37.2013457693473,139.780018052172,Z005360,0,S0702000543,,,,,,
S0702000544,東荒井,37.2031251559816,139.783628781481,0,1,,,,,,,
S070200054400000,東荒井,37.2031251559816,139.783628781481,Z005370,0,S0702000544,,,,,,
S0702000545,栗生沢入口,37.2048438003854,139.788107497056,0,1,,,,,,,
S070200054500000,栗生沢入口,37.2048438003854,139.788107497056,Z005380,0,S0702000545,,,,,,
S0702000546,田島高校入口,37.2105725623092,139.8000159665,0,1,,,,,,,
S070200054600000,田島高校入口,37.2105725623092,139.8000159665,Z005390,0,S0702000546,,,,,,
S0702000547,田部原,37.2123519574328,139.804112766551,0,1,,,,,,,
S070200054700000,田部原,37.2123519574328,139.804112766551,Z005400,0,S0702000547,,,,,,
S0702000548,長野林,37.2141140042173,139.8088345155,0,1,,,,,,,
S070200054800000,長野林,37.2141140042173,139.8088345155,Z005410,0,S0702000548,,,,,,
S0702000549,林中,37.2151382699581,139.812827192303,0,1,,,,,,,
S070200054900000,林中,37.2151382699581,139.812827192303,Z005420,0,S0702000549,,,,,,
S0702000550,長野,37.2156157313149,139.817514281059,0,1,,,,,,,
S070200055000000,長野,37.2156157313149,139.817514281059,Z005430,0,S0702000550,,,,,,
S0702000551,長野郵便局前,37.2160063654743,139.820430687534,0,1,,,,,,,
S070200055100000,長野郵便局前,37.2160063654743,139.820430687534,Z005440,0,S0702000551,,,,,,
S0702000552,長野駅前,37.2163969832611,139.82240967186,0,1,,,,,,,
S070200055200000,長野駅前,37.2163969832611,139.82240967186,Z005450,0,S0702000552,,,,,,
S0702000553,下川原,37.2181937461286,139.826992541856,0,1,,,,,,,
S070200055300000,下川原,37.2181937461286,139.826992541856,Z005460,0,S0702000553,,,,,,
S0702000554,落合下川原,37.2255629060444,139.835949791972,0,1,,,,,,,
S070200055400000,落合下川原,37.2255629060444,139.835949791972,Z005470,0,S0702000554,,,,,,
S0702000555,落合入口,37.2295902300086,139.834630271667,0,1,,,,,,,
S070200055500000,落合入口,37.2295902300086,139.834630271667,Z005480,0,S0702000555,,,,,,
S0702000556,倉村,37.2332096678899,139.836539668652,0,1,,,,,,,
S070200055600000,倉村,37.2332096678899,139.836539668652,Z005490,0,S0702000556,,,,,,
S0702000557,倉村タバコ屋前,37.2348935458804,139.838275558062,0,1,,,,,,,
S070200055700000,倉村タバコ屋前,37.2348935458804,139.838275558062,Z005500,0,S0702000557,,,,,,
S0702000558,上総,37.2378967951162,139.843899952671,0,1,,,,,,,
S070200055800000,上総,37.2378967951162,139.843899952671,Z005510,0,S0702000558,,,,,,
S0702000559,旧楢原タバコ屋前,37.2418460861175,139.847371704716,0,1,,,,,,,
S070200055900000,旧楢原タバコ屋前,37.2418460861175,139.847371704716,Z005520,0,S0702000559,,,,,,
S0702000560,旧楢原床屋前,37.2437122332467,139.848933989039,0,1,,,,,,,
S070200056000000,旧楢原床屋前,37.2437122332467,139.848933989039,Z005530,0,S0702000560,,,,,,
S0702000561,刈合,37.2515761883053,139.861120114883,0,1,,,,,,,
S070200056100000,刈合,37.2515761883053,139.861120114883,Z005540,0,S0702000561,,,,,,
S0702000562,会津下郷駅入口,37.2542495862404,139.86528631245,0,1,,,,,,,
S070200056200000,会津下郷駅入口,37.2542495862404,139.86528631245,Z005550,0,S0702000562,,,,,,
S0702000563,橋坂,37.2610892137066,139.869938388935,0,1,,,,,,,
S070200056300000,橋坂,37.2610892137066,139.869938388935,Z005560,0,S0702000563,,,,,,
S0702000564,農協前,37.2510555792512,139.870772115044,0,1,,,,,,,
S070200056400000,農協前,37.2510555792512,139.870772115044,Z005570,0,S0702000564,,,,,,
S0702000565,中妻新田,37.2558729208959,139.879278131248,0,1,,,,,,,
S070200056500000,中妻新田,37.2558729208959,139.879278131248,Z005580,0,S0702000565,,,,,,
S0702000566,中妻中央,37.25833805629,139.886221885509,0,1,,,,,,,
S070200056600000,中妻中央,37.25833805629,139.886221885509,Z005590,0,S0702000566,,,,,,
S0702000567,公民館前（下郷町）,37.2597008475013,139.891360284906,0,1,,,,,,,
S070200056700000,公民館前（下郷町）,37.2597008475013,139.891360284906,Z005600,0,S0702000567,,,,,,
S0702000568,沢入入口,37.2642577269579,139.895665273106,0,1,,,,,,,
S070200056800000,沢入入口,37.2642577269579,139.895665273106,Z005610,0,S0702000568,,,,,,
S0702000569,水門入口,37.2679986687045,139.896949716399,0,1,,,,,,,
S070200056900000,水門入口,37.2679986687045,139.896949716399,Z005620,0,S0702000569,,,,,,
S0702000570,弥五島若喜屋前,37.2684672915603,139.892540338793,0,1,,,,,,,
S070200057000000,弥五島若喜屋前,37.2684672915603,139.892540338793,Z005630,0,S0702000570,,,,,,
S0702000571,湯の上ホテル前,37.2924319065085,139.901948176211,0,1,,,,,,,
S070200057100000,湯の上ホテル前,37.2924319065085,139.901948176211,Z005650,0,S0702000571,,,,,,
S0702000572,中山風穴入口,37.2936296877813,139.901531488995,0,1,,,,,,,
S070200057200000,中山風穴入口,37.2936296877813,139.901531488995,Z005660,0,S0702000572,,,,,,
S0702000573,つるや旅館前,37.2956346664979,139.900663413209,0,1,,,,,,,
S070200057300000,つるや旅館前,37.2956346664979,139.900663413209,Z005670,0,S0702000573,,,,,,
S0702000574,湯の上清水屋前,37.2970407509397,139.899795364999,0,1,,,,,,,
S070200057400000,湯の上清水屋前,37.2970407509397,139.899795364999,Z005680,0,S0702000574,,,,,,
S0702000575,新湯入口,37.2988200466157,139.89819819349,0,1,,,,,,,
S070200057500000,新湯入口,37.2988200466157,139.89819819349,Z005690,0,S0702000575,,,,,,
S0702000576,大内宿入口,37.3070829886172,139.894587001803,0,1,,,,,,,
S070200057600000,大内宿入口,37.3070829886172,139.894587001803,Z005730,0,S0702000576,,,,,,
S0702000577,小野下,37.3097997295068,139.895593737542,0,1,,,,,,,
S070200057700000,小野下,37.3097997295068,139.895593737542,Z005740,0,S0702000577,,,,,,
S0702000578,町民体育館前［下郷町］,37.3093658215213,139.899794797517,0,1,,,,,,,
S070200057800000,町民体育館前［下郷町］,37.3093658215213,139.899794797517,Z005750,0,S0702000578,,,,,,
S0702000579,鶴沼発電所前,37.3084458907977,139.906079040198,0,1,,,,,,,
S070200057900000,鶴沼発電所前,37.3084458907977,139.906079040198,Z005760,0,S0702000579,,,,,,
S0702000580,田代,37.3079164929664,139.909481559777,0,1,,,,,,,
S070200058000000,田代,37.3079164929664,139.909481559777,Z005770,0,S0702000580,,,,,,
S0702000581,芦ノ原,37.3028392755116,139.930348116173,0,1,,,,,,,
S070200058100000,芦ノ原,37.3028392755116,139.930348116173,Z005780,0,S0702000581,,,,,,
S0702000582,上芦ノ原,37.3024747784688,139.933056241384,0,1,,,,,,,
S070200058200000,上芦ノ原,37.3024747784688,139.933056241384,Z005790,0,S0702000582,,,,,,
S0702000583,小川橋,37.2999405632204,139.946562180864,0,1,,,,,,,
S070200058300000,小川橋,37.2999405632204,139.946562180864,Z005800,0,S0702000583,,,,,,
S0702000584,枝松,37.2876678469151,139.962394764434,0,1,,,,,,,
S070200058400000,枝松,37.2876678469151,139.962394764434,Z005810,0,S0702000584,,,,,,
S0702000585,下郷中学校入口,37.2621828994858,139.872958921054,0,1,,,,,,,
S070200058500000,下郷中学校入口,37.2621828994858,139.872958921054,Z005820,0,S0702000585,,,,,,
S0702000586,下郷消防署前,37.2616101016995,139.876257284615,0,1,,,,,,,
S070200058600000,下郷消防署前,37.2616101016995,139.876257284615,Z005830,0,S0702000586,,,,,,
S0702000587,西の浦,37.2631378191676,139.882159501873,0,1,,,,,,,
S070200058700000,西の浦,37.2631378191676,139.882159501873,Z005840,0,S0702000587,,,,,,
S0702000588,弥五島長沼,37.2664882280219,139.886325668268,0,1,,,,,,,
S070200058800000,弥五島長沼,37.2664882280219,139.886325668268,Z005850,0,S0702000588,,,,,,
S0702000589,弥五島駅前,37.2675298251232,139.888721254687,0,1,,,,,,,
S070200058900000,弥五島駅前,37.2675298251232,139.888721254687,Z005860,0,S0702000589,,,,,,
S0702000590,小沼崎,37.3255969408103,139.912188854145,0,1,,,,,,,
S070200059000000,小沼崎,37.3255969408103,139.912188854145,Z005870,0,S0702000590,,,,,,
S0702000591,杉境,37.5671143132788,139.801492481844,0,1,,,,,,,
S070200059100000,杉境,37.5671143132788,139.801492481844,Z005980,0,S0702000591,,,,,,
S0702000592,杉の糸桜前,37.5610038230061,139.799617918893,0,1,,,,,,,
S070200059200000,杉の糸桜前,37.5610038230061,139.799617918893,Z005990,0,S0702000592,,,,,,
S0702000593,船窪,37.5536782097914,139.799166904781,0,1,,,,,,,
S070200059300000,船窪,37.5536782097914,139.799166904781,Z006000,0,S0702000593,,,,,,
S0702000594,西村,37.5484530754477,139.799236584039,0,1,,,,,,,
S070200059400000,西村,37.5484530754477,139.799236584039,Z006010,0,S0702000594,,,,,,
S0702000595,大村新田,37.5437834208704,139.798368815574,0,1,,,,,,,
S070200059500000,大村新田,37.5437834208704,139.798368815574,Z006020,0,S0702000595,,,,,,
S0702000596,勝方村中,37.5369264596182,139.795174952117,0,1,,,,,,,
S070200059600000,勝方村中,37.5369264596182,139.795174952117,Z006030,0,S0702000596,,,,,,
S0702000597,勝方中条,37.5361452865027,139.794793075358,0,1,,,,,,,
S070200059700000,勝方中条,37.5361452865027,139.794793075358,Z006040,0,S0702000597,,,,,,
S0702000598,勝方寺条,37.5370826686517,139.793786171372,0,1,,,,,,,
S070200059800000,勝方寺条,37.5370826686517,139.793786171372,Z006050,0,S0702000598,,,,,,
S0702000599,大村,37.5407889561671,139.798750866174,0,1,,,,,,,
S070200059900000,大村,37.5407889561671,139.798750866174,Z006060,0,S0702000599,,,,,,
S0702000600,大村新田入口,37.5448424275563,139.803646106313,0,1,,,,,,,
S070200060000000,大村新田入口,37.5448424275563,139.803646106313,Z006070,0,S0702000600,,,,,,
S0702000601,牛沢集落センター前,37.5454500742249,139.807812398993,0,1,,,,,,,
S070200060100000,牛沢集落センター前,37.5454500742249,139.807812398993,Z006080,0,S0702000601,,,,,,
S0702000602,牛沢小池前,37.5465610677155,139.807881786518,0,1,,,,,,,
S070200060200000,牛沢小池前,37.5465610677155,139.807881786518,Z006090,0,S0702000602,,,,,,
S0702000603,西牛沢入口,37.5504495419005,139.807951046158,0,1,,,,,,,
S070200060300000,西牛沢入口,37.5504495419005,139.807951046158,Z006100,0,S0702000603,,,,,,
S0702000604,蛭川入口,37.5551626000711,139.809131286675,0,1,,,,,,,
S070200060400000,蛭川入口,37.5551626000711,139.809131286675,Z006110,0,S0702000604,,,,,,
S0702000605,松長小学校前,37.5256891657796,139.956828711027,0,1,,,,,,,
S070200060500000,松長小学校前,37.5256891657796,139.956828711027,Z006120,0,S0702000605,,,,,,
S070200060500001,松長小学校前,37.5256891657796,139.956828711027,Z006121,0,S0702000605,,,,,,
S0702000606,松長六丁目,37.5240574704575,139.961099264828,0,1,,,,,,,
S070200060600000,松長六丁目,37.5240574704575,139.961099264828,Z006130,0,S0702000606,,,,,,
S070200060600001,松長六丁目,37.5240574704575,139.961099264828,Z006131,0,S0702000606,,,,,,
S0702000607,松長五丁目,37.5270085637061,139.962244867133,0,1,,,,,,,
S070200060700000,松長五丁目,37.5270085637061,139.962244867133,Z006140,0,S0702000607,,,,,,
S070200060700001,松長五丁目,37.5270085637061,139.962244867133,Z006141,0,S0702000607,,,,,,
S0702000608,松長コミュニティセンター前,37.5287704758722,139.959258922871,0,1,,,,,,,
S070200060800000,松長コミュニティセンター前,37.5287704758722,139.959258922871,Z006150,0,S0702000608,,,,,,
S070200060800001,松長コミュニティセンター前,37.5287704758722,139.959258922871,Z006151,0,S0702000608,,,,,,
S0702000609,松長一丁目,37.5306539034251,139.956307692354,0,1,,,,,,,
S070200060900000,松長一丁目,37.5306539034251,139.956307692354,Z006160,0,S0702000609,,,,,,
S0702000610,松長団地,37.5281281009927,139.954537122369,0,1,,,,,,,
S070200061000000,松長団地,37.5281281009927,139.954537122369,Z006170,0,S0702000610,,,,,,
S070200061000001,松長団地,37.5281281009927,139.954537122369,Z006171,0,S0702000610,,,,,,
S0702000611,長原,37.5233022307117,139.954676221922,0,1,,,,,,,
S070200061100000,長原,37.5233022307117,139.954676221922,Z006180,0,S0702000611,,,,,,
S070200061100001,長原,37.5233022307117,139.954676221922,Z006181,0,S0702000611,,,,,,
S0702000612,居合団地北口,37.5204725588595,139.948183835851,0,1,,,,,,,
S070200061200000,居合団地北口,37.5204725588595,139.948183835851,Z006190,0,S0702000612,,,,,,
S070200061200001,居合団地北口,37.5204725588595,139.948183835851,Z006191,0,S0702000612,,,,,,
S0702000613,仁愛高校前,37.5202989384222,139.946586754258,0,1,,,,,,,
S070200061300000,仁愛高校前,37.5202989384222,139.946586754258,Z006200,0,S0702000613,,,,,,
S070200061300001,仁愛高校前,37.5202989384222,139.946586754258,Z006201,0,S0702000613,,,,,,
S0702000614,居合団地西口,37.5175388188013,139.946691039359,0,1,,,,,,,
S070200061400000,居合団地西口,37.5175388188013,139.946691039359,Z006210,0,S0702000614,,,,,,
S070200061400001,居合団地西口,37.5175388188013,139.946691039359,Z006211,0,S0702000614,,,,,,
S0702000615,大塚二丁目,37.5147960547964,139.946587007627,0,1,,,,,,,
S070200061500000,大塚二丁目,37.5147960547964,139.946587007627,Z006220,0,S0702000615,,,,,,
S070200061500001,大塚二丁目,37.5147960547964,139.946587007627,Z006221,0,S0702000615,,,,,,
S0702000616,北滝沢,37.5131295645605,139.946482926342,0,1,,,,,,,
S070200061600000,北滝沢,37.5131295645605,139.946482926342,Z006230,0,S0702000616,,,,,,
S070200061600001,北滝沢,37.5131295645605,139.946482926342,Z006231,0,S0702000616,,,,,,
S0702000617,大塚山南,37.5118102394007,139.94523309089,0,1,,,,,,,
S070200061700000,大塚山南,37.5118102394007,139.94523309089,Z006240,0,S0702000617,,,,,,
S070200061700001,大塚山南,37.5118102394007,139.94523309089,Z006241,0,S0702000617,,,,,,
S0702000618,会津中央病院前,37.5205506197163,139.944989653085,0,1,,,,,,,
S070200061800000,会津中央病院前,37.5205506197163,139.944989653085,Z006250,0,S0702000618,,,,,,
S070200061800001,会津中央病院前,37.5205506197163,139.944989653085,Z006251,0,S0702000618,,,,,,
S0702000619,居合中央商店街,37.5185717387009,139.949225503534,0,1,,,,,,,
S070200061900000,居合中央商店街,37.5185717387009,139.949225503534,Z006260,0,S0702000619,,,,,,
S070200061900001,居合中央商店街,37.5185717387009,139.949225503534,Z006261,0,S0702000619,,,,,,
S0702000620,勝田内,37.4094625310791,140.085816406129,0,1,,,,,,,
S070200062000000,勝田内,37.4094625310791,140.085816406129,Z005880,0,S0702000620,,,,,,
S0702000621,前田,37.415112931377,140.083698266301,0,1,,,,,,,
S070200062100000,前田,37.415112931377,140.083698266301,Z005890,0,S0702000621,,,,,,
S0702000622,中浜,37.4167273250519,140.082726050483,0,1,,,,,,,
S070200062200000,中浜,37.4167273250519,140.082726050483,Z005900,0,S0702000622,,,,,,
S0702000623,秋山,37.4171352123475,140.07956657187,0,1,,,,,,,
S070200062300000,秋山,37.4171352123475,140.07956657187,Z005910,0,S0702000623,,,,,,
S0702000624,横沢,37.419939866477,140.144526325655,0,1,,,,,,,
S070200062400000,横沢,37.419939866477,140.144526325655,Z006270,0,S0702000624,,,,,,
S0702000625,月形局前,37.4221705458194,140.145394206418,0,1,,,,,,,
S070200062500000,月形局前,37.4221705458194,140.145394206418,Z006280,0,S0702000625,,,,,,
S0702000626,浜路,37.4386619126349,140.14969864512,0,1,,,,,,,
S070200062600000,浜路,37.4386619126349,140.14969864512,Z006290,0,S0702000626,,,,,,
S0702000627,中大沢,37.4432013964538,140.151920473793,0,1,,,,,,,
S070200062700000,中大沢,37.4432013964538,140.151920473793,Z006300,0,S0702000627,,,,,,
S0702000628,町ヶ小屋,37.4525059683016,140.152579712821,0,1,,,,,,,
S070200062800000,町ヶ小屋,37.4525059683016,140.152579712821,Z006310,0,S0702000628,,,,,,
S0702000629,飼沢,37.4701516533704,140.152752497056,0,1,,,,,,,
S070200062900000,飼沢,37.4701516533704,140.152752497056,Z006320,0,S0702000629,,,,,,
S0702000630,上戸水門,37.4891253620243,140.155251415845,0,1,,,,,,,
S070200063000000,上戸水門,37.4891253620243,140.155251415845,Z006330,0,S0702000630,,,,,,
S0702000631,上戸,37.4897157252372,140.163757626672,0,1,,,,,,,
S070200063100000,上戸,37.4897157252372,140.163757626672,Z006340,0,S0702000631,,,,,,
S0702000632,田子沼,37.4845778189141,140.188547471149,0,1,,,,,,,
S070200063200000,田子沼,37.4845778189141,140.188547471149,Z006350,0,S0702000632,,,,,,
S0702000633,中山宿,37.493396931359,140.223544158614,0,1,,,,,,,
S070200063300000,中山宿,37.493396931359,140.223544158614,Z006360,0,S0702000633,,,,,,
S0702000634,太田熱海病院,37.4868271509384,140.263471700741,0,1,,,,,,,
S070200063400000,太田熱海病院,37.4868271509384,140.263471700741,Z006370,0,S0702000634,,,,,,
S0702000635,かんぽの宿郡山,37.4793107642043,140.273228181024,0,1,,,,,,,
S070200063500000,かんぽの宿郡山,37.4793107642043,140.273228181024,Z006380,0,S0702000635,,,,,,
S0702000636,磐梯熱海駅,37.4811160902724,140.271144937573,0,1,,,,,,,
S070200063600000,磐梯熱海駅,37.4811160902724,140.271144937573,Z006390,0,S0702000636,,,,,,
S0702000637,上戸駅前,37.4884398060963,140.162959140627,0,1,,,,,,,
S070200063700000,上戸駅前,37.4884398060963,140.162959140627,Z006400,0,S0702000637,,,,,,
S0702000638,小川原,37.5569249039644,139.828574035268,0,1,,,,,,,
S070200063800000,小川原,37.5569249039644,139.828574035268,Z006410,0,S0702000638,,,,,,
S0702000639,舟渡,37.5773556954509,139.768404480412,0,1,,,,,,,
S070200063900000,舟渡,37.5773556954509,139.768404480412,Z006420,0,S0702000639,,,,,,
S0702000640,片門,37.5752551516964,139.764168817793,0,1,,,,,,,
S070200064000000,片門,37.5752551516964,139.764168817793,Z006430,0,S0702000640,,,,,,
S0702000641,洲走入口,37.5744912602173,139.759342864869,0,1,,,,,,,
S070200064100000,洲走入口,37.5744912602173,139.759342864869,Z006440,0,S0702000641,,,,,,
S0702000642,洲走,37.5826587845333,139.759064734102,0,1,,,,,,,
S070200064200000,洲走,37.5826587845333,139.759064734102,Z006450,0,S0702000642,,,,,,
S0702000643,天屋,37.5747341236276,139.749829754852,0,1,,,,,,,
S070200064300000,天屋,37.5747341236276,139.749829754852,Z006460,0,S0702000643,,,,,,
S0702000644,杉山公民館,37.5796033968955,139.749968408012,0,1,,,,,,,
S070200064400000,杉山公民館,37.5796033968955,139.749968408012,Z006470,0,S0702000644,,,,,,
S0702000645,杉山,37.5835699628631,139.748614171166,0,1,,,,,,,
S070200064500000,杉山,37.5835699628631,139.748614171166,Z006480,0,S0702000645,,,,,,
S0702000646,会津アピオ中央,37.5211663875279,139.917179434344,0,1,,,,,,,
S070200064600000,会津アピオ中央,37.5211663875279,139.917179434344,Z006490,0,S0702000646,,,,,,
S0702000647,会津アピオ南口,37.5194998724301,139.915651860168,0,1,,,,,,,
S070200064700000,会津アピオ南口,37.5194998724301,139.915651860168,Z006500,0,S0702000647,,,,,,
S0702000648,中の明,37.51831075138,139.914957528143,0,1,,,,,,,
S070200064800000,中の明,37.51831075138,139.914957528143,Z006510,0,S0702000648,,,,,,
S0702000649,達摩,37.5170781909596,139.911902283077,0,1,,,,,,,
S070200064900000,達摩,37.5170781909596,139.911902283077,Z006520,0,S0702000649,,,,,,
S0702000650,上高野,37.5247682830254,139.908603591816,0,1,,,,,,,
S070200065000000,上高野,37.5247682830254,139.908603591816,Z006530,0,S0702000650,,,,,,
S0702000651,下高野,37.5361992434649,139.902388303853,0,1,,,,,,,
S070200065100000,下高野,37.5361992434649,139.902388303853,Z006540,0,S0702000651,,,,,,
S0702000652,十里柳,37.5371105424661,139.898846889336,0,1,,,,,,,
S070200065200000,十里柳,37.5371105424661,139.898846889336,Z006550,0,S0702000652,,,,,,
S0702000653,界沢,37.5401136722433,139.897631574205,0,1,,,,,,,
S070200065300000,界沢,37.5401136722433,139.897631574205,Z006560,0,S0702000653,,,,,,
S0702000654,上森台,37.5444274390638,139.897180024182,0,1,,,,,,,
S070200065400000,上森台,37.5444274390638,139.897180024182,Z006570,0,S0702000654,,,,,,
S0702000655,下森台,37.546892437414,139.896277207876,0,1,,,,,,,
S070200065500000,下森台,37.546892437414,139.896277207876,Z006580,0,S0702000655,,,,,,
S0702000656,熊の屋,37.5549817686805,139.89162444402,0,1,,,,,,,
S070200065600000,熊の屋,37.5549817686805,139.89162444402,Z006590,0,S0702000656,,,,,,
S0702000657,笠の目,37.5599377945602,139.88926330079,0,1,,,,,,,
S070200065700000,笠の目,37.5599377945602,139.88926330079,Z006600,0,S0702000657,,,,,,
S0702000658,湯川役場前,37.5659527628485,139.88849919839,0,1,,,,,,,
S070200065800000,湯川役場前,37.5659527628485,139.88849919839,Z006610,0,S0702000658,,,,,,
S0702000659,湯川小川屋前,37.5707612690242,139.888082344926,0,1,,,,,,,
S070200065900000,湯川小川屋前,37.5707612690242,139.888082344926,Z006620,0,S0702000659,,,,,,
S0702000660,笈川学校前,37.5728530591722,139.888082248614,0,1,,,,,,,
S070200066000000,笈川学校前,37.5728530591722,139.888082248614,Z006630,0,S0702000660,,,,,,
S0702000661,新館,37.572322269072,139.811769166343,0,1,,,,,,,
S070200066100000,新館,37.572322269072,139.811769166343,Z006640,0,S0702000661,,,,,,
S0702000662,見留,37.5743967072424,139.812185702895,0,1,,,,,,,
S070200066200000,見留,37.5743967072424,139.812185702895,Z006650,0,S0702000662,,,,,,
S0702000663,蛙田,37.5790663448407,139.812081329875,0,1,,,,,,,
S070200066300000,蛙田,37.5790663448407,139.812081329875,Z006660,0,S0702000663,,,,,,
S0702000664,会津寿楽荘前,37.5789359576014,139.801040586137,0,1,,,,,,,
S070200066400000,会津寿楽荘前,37.5789359576014,139.801040586137,Z006670,0,S0702000664,,,,,,
S0702000665,会津農業センター前,37.5806024666354,139.802220966925,0,1,,,,,,,
S070200066500000,会津農業センター前,37.5806024666354,139.802220966925,Z006680,0,S0702000665,,,,,,
S0702000666,見明,37.5848381671416,139.804651125618,0,1,,,,,,,
S070200066600000,見明,37.5848381671416,139.804651125618,Z006690,0,S0702000666,,,,,,
S0702000667,大上,37.5872251804337,139.811282409426,0,1,,,,,,,
S070200066700000,大上,37.5872251804337,139.811282409426,Z006700,0,S0702000667,,,,,,
S0702000668,宇内入口,37.5967640864489,139.811038934855,0,1,,,,,,,
S070200066800000,宇内入口,37.5967640864489,139.811038934855,Z006710,0,S0702000668,,,,,,
S0702000669,宇内,37.6004876598455,139.811802588865,0,1,,,,,,,
S070200066900000,宇内,37.6004876598455,139.811802588865,Z006720,0,S0702000669,,,,,,
S0702000670,津尻,37.6057734782063,139.807531866816,0,1,,,,,,,
S070200067000000,津尻,37.6057734782063,139.807531866816,Z006730,0,S0702000670,,,,,,
S0702000671,津尻温泉入口,37.6075267046813,139.804198729567,0,1,,,,,,,
S070200067100000,津尻温泉入口,37.6075267046813,139.804198729567,Z006740,0,S0702000671,,,,,,
S0702000672,よしの屋前,37.6215354919539,139.796698707378,0,1,,,,,,,
S070200067200000,よしの屋前,37.6215354919539,139.796698707378,Z006750,0,S0702000672,,,,,,
S0702000673,長井,37.6222558719024,139.795032145946,0,1,,,,,,,
S070200067300000,長井,37.6222558719024,139.795032145946,Z006760,0,S0702000673,,,,,,
S0702000674,袋原,37.6316385567564,139.795483065344,0,1,,,,,,,
S070200067400000,袋原,37.6316385567564,139.795483065344,Z006770,0,S0702000674,,,,,,
S0702000675,袋原公民館前,37.6317688275689,139.799857696037,0,1,,,,,,,
S070200067500000,袋原公民館前,37.6317688275689,139.799857696037,Z006780,0,S0702000675,,,,,,
S0702000676,大芦,37.2966193935447,139.628672067611,0,1,,,,,,,
S070200067600000,大芦,37.2966193935447,139.628672067611,Z006790,0,S0702000676,,,,,,
S0702000677,宮の下,37.2977130581003,139.630477422875,0,1,,,,,,,
S070200067700000,宮の下,37.2977130581003,139.630477422875,Z006800,0,S0702000677,,,,,,
S0702000678,山崎（昭和村）,37.299553206976,139.634365904096,0,1,,,,,,,
S070200067800000,山崎（昭和村）,37.299553206976,139.634365904096,Z006810,0,S0702000678,,,,,,
S0702000679,大芦中見沢,37.3023654716691,139.638115463203,0,1,,,,,,,
S070200067900000,大芦中見沢,37.3023654716691,139.638115463203,Z006820,0,S0702000679,,,,,,
S0702000680,上両原,37.3099432112673,139.662453370809,0,1,,,,,,,
S070200068000000,上両原,37.3099432112673,139.662453370809,Z006830,0,S0702000680,,,,,,
S0702000681,下両原,37.3107330391481,139.661411754279,0,1,,,,,,,
S070200068100000,下両原,37.3107330391481,139.661411754279,Z006840,0,S0702000681,,,,,,
S0702000682,喰丸上,37.3176592160857,139.651933055881,0,1,,,,,,,
S070200068200000,喰丸上,37.3176592160857,139.651933055881,Z006850,0,S0702000682,,,,,,
S0702000683,喰丸下,37.3187788255326,139.648356912433,0,1,,,,,,,
S070200068300000,喰丸下,37.3187788255326,139.648356912433,Z006860,0,S0702000683,,,,,,
S0702000684,上佐倉,37.3234829269563,139.633670415525,0,1,,,,,,,
S070200068400000,上佐倉,37.3234829269563,139.633670415525,Z006870,0,S0702000684,,,,,,
S0702000685,下佐倉,37.3249150157154,139.630823363805,0,1,,,,,,,
S070200068500000,下佐倉,37.3249150157154,139.630823363805,Z006880,0,S0702000685,,,,,,
S0702000686,小中津川昭和館前,37.328994290101,139.622212779958,0,1,,,,,,,
S070200068600000,小中津川昭和館前,37.328994290101,139.622212779958,Z006890,0,S0702000686,,,,,,
S0702000687,小中津川中島,37.330148637461,139.619747653752,0,1,,,,,,,
S070200068700000,小中津川中島,37.330148637461,139.619747653752,Z006900,0,S0702000687,,,,,,
S0702000688,公民館前（昭和村）,37.332899959209,139.612873097988,0,1,,,,,,,
S070200068800000,公民館前（昭和村）,37.332899959209,139.612873097988,Z006910,0,S0702000688,,,,,,
S0702000689,下中津川学校前,37.3341411046598,139.610512125803,0,1,,,,,,,
S070200068900000,下中津川学校前,37.3341411046598,139.610512125803,Z006920,0,S0702000689,,,,,,
S0702000690,区長事務所前,37.3362154949255,139.608185834592,0,1,,,,,,,
S070200069000000,区長事務所前,37.3362154949255,139.608185834592,Z006930,0,S0702000690,,,,,,
S0702000691,下中津川菅家前,37.3387499060374,139.605894241539,0,1,,,,,,,
S070200069100000,下中津川菅家前,37.3387499060374,139.605894241539,Z006940,0,S0702000691,,,,,,
S0702000692,阿久戸,37.3415707763783,139.605408040915,0,1,,,,,,,
S070200069200000,阿久戸,37.3415707763783,139.605408040915,Z006950,0,S0702000692,,,,,,
S0702000693,下中津川栗城前,37.3443915739525,139.600755519636,0,1,,,,,,,
S070200069300000,下中津川栗城前,37.3443915739525,139.600755519636,Z006960,0,S0702000693,,,,,,
S0702000694,昭和温泉しらかば荘前,37.3549978861291,139.589749000886,0,1,,,,,,,
S070200069400000,昭和温泉しらかば荘前,37.3549978861291,139.589749000886,Z006970,0,S0702000694,,,,,,
S0702000695,中向糸屋前,37.3554230174652,139.579992847106,0,1,,,,,,,
S070200069500000,中向糸屋前,37.3554230174652,139.579992847106,Z006980,0,S0702000695,,,,,,
S0702000696,中向中央,37.3563951078143,139.578395712763,0,1,,,,,,,
S070200069600000,中向中央,37.3563951078143,139.578395712763,Z006990,0,S0702000696,,,,,,
S0702000697,下中向,37.3583740149044,139.575652793881,0,1,,,,,,,
S070200069700000,下中向,37.3583740149044,139.575652793881,Z007000,0,S0702000697,,,,,,
S0702000698,野尻小島屋前,37.3616462288901,139.57534016917,0,1,,,,,,,
S070200069800000,野尻小島屋前,37.3616462288901,139.57534016917,Z007010,0,S0702000698,,,,,,
S0702000699,野尻菅家前,37.3631998609299,139.574124920777,0,1,,,,,,,
S070200069900000,野尻菅家前,37.3631998609299,139.574124920777,Z007020,0,S0702000699,,,,,,
S0702000700,野尻下,37.3648662899205,139.570722348847,0,1,,,,,,,
S070200070000000,野尻下,37.3648662899205,139.570722348847,Z007030,0,S0702000700,,,,,,
S0702000701,松山,37.3731030305283,139.557806375565,0,1,,,,,,,
S070200070100000,松山,37.3731030305283,139.557806375565,Z007040,0,S0702000701,,,,,,
S0702000702,川上,37.405234907226,139.551902608521,0,1,,,,,,,
S070200070200000,川上,37.405234907226,139.551902608521,Z007050,0,S0702000702,,,,,,
S0702000703,下方,37.4084463547256,139.551069196525,0,1,,,,,,,
S070200070300000,下方,37.4084463547256,139.551069196525,Z007060,0,S0702000703,,,,,,
S0702000704,上中井,37.4132548469543,139.54985379827,0,1,,,,,,,
S070200070400000,上中井,37.4132548469543,139.54985379827,Z007070,0,S0702000704,,,,,,
S0702000705,東中井,37.4182629730333,139.548777268178,0,1,,,,,,,
S070200070500000,東中井,37.4182629730333,139.548777268178,Z007080,0,S0702000705,,,,,,
S0702000706,玉梨八町温泉,37.4222381689043,139.544576045152,0,1,,,,,,,
S070200070600000,玉梨八町温泉,37.4222381689043,139.544576045152,Z007090,0,S0702000706,,,,,,
S0702000707,坂井（金山町）,37.4299542683193,139.539471947075,0,1,,,,,,,
S070200070700000,坂井（金山町）,37.4299542683193,139.539471947075,Z007100,0,S0702000707,,,,,,
S0702000708,小栗山上村,37.4364725130885,139.53058349622,0,1,,,,,,,
S070200070800000,小栗山上村,37.4364725130885,139.53058349622,Z007110,0,S0702000708,,,,,,
S0702000709,小栗山,37.4374619651176,139.529125238432,0,1,,,,,,,
S070200070900000,小栗山,37.4374619651176,139.529125238432,Z007120,0,S0702000709,,,,,,
S0702000710,スキー場入口,37.4386770813892,139.527319776867,0,1,,,,,,,
S070200071000000,スキー場入口,37.4386770813892,139.527319776867,Z007130,0,S0702000710,,,,,,
S0702000711,上町（金山町）,37.4517658888207,139.523291730917,0,1,,,,,,,
S070200071100000,上町（金山町）,37.4517658888207,139.523291730917,Z007140,0,S0702000711,,,,,,
S0702000712,川口駅前,37.4549252791745,139.523638778837,0,1,,,,,,,
S070200071200000,川口駅前,37.4549252791745,139.523638778837,Z007150,0,S0702000712,,,,,,
S0702000713,川口車庫,37.4561056041708,139.517666998216,0,1,,,,,,,
S070200071300000,川口車庫,37.4561056041708,139.517666998216,Z007160,0,S0702000713,,,,,,
S0702000714,白虎町,37.5087287898386,139.934817431125,0,1,,,,,,,
S070200071400000,白虎町,37.5087287898386,139.934817431125,Z007170,0,S0702000714,,,,,,
S070200071400001,白虎町,37.5087287898386,139.934817431125,Z007171,0,S0702000714,,,,,,
S0702000715,扇町南,37.5107164632695,139.93703937729,0,1,,,,,,,
S070200071500000,扇町南,37.5107164632695,139.93703937729,Z007180,0,S0702000715,,,,,,
S070200071500001,扇町南,37.5107164632695,139.93703937729,Z007181,0,S0702000715,,,,,,
S0702000716,扇町北,37.5140754741332,139.936761467921,0,1,,,,,,,
S070200071600000,扇町北,37.5140754741332,139.936761467921,Z007190,0,S0702000716,,,,,,
S070200071600001,扇町北,37.5140754741332,139.936761467921,Z007191,0,S0702000716,,,,,,
S0702000717,亀賀村前,37.5161151840926,139.936622496652,0,1,,,,,,,
S070200071700000,亀賀村前,37.5161151840926,139.936622496652,Z007200,0,S0702000717,,,,,,
S070200071700001,亀賀村前,37.5161151840926,139.936622496652,Z007201,0,S0702000717,,,,,,
S0702000718,扇町自動車学校前,37.5203594732677,139.933844754128,0,1,,,,,,,
S070200071800000,扇町自動車学校前,37.5203594732677,139.933844754128,Z007210,0,S0702000718,,,,,,
S070200071800001,扇町自動車学校前,37.5203594732677,139.933844754128,Z007211,0,S0702000718,,,,,,
S0702000719,支援学校入口,37.5216354033237,139.935268188271,0,1,,,,,,,
S070200071900000,支援学校入口,37.5216354033237,139.935268188271,Z007220,0,S0702000719,,,,,,
S070200071900001,支援学校入口,37.5216354033237,139.935268188271,Z007221,0,S0702000719,,,,,,
S0702000720,会津大学前,37.5216441078128,139.936691680762,0,1,,,,,,,
S070200072000000,会津大学前,37.5216441078128,139.936691680762,Z007230,0,S0702000720,,,,,,
S070200072000001,会津大学前,37.5216441078128,139.936691680762,Z007231,0,S0702000720,,,,,,
S0702000721,船ヶ森,37.5241352438859,139.941448115479,0,1,,,,,,,
S070200072100000,船ヶ森,37.5241352438859,139.941448115479,Z007240,0,S0702000721,,,,,,
S070200072100001,船ヶ森,37.5241352438859,139.941448115479,Z007241,0,S0702000721,,,,,,
S0702000722,居合団地中央,37.519483134118,139.951204463883,0,1,,,,,,,
S070200072200000,居合団地中央,37.519483134118,139.951204463883,Z007250,0,S0702000722,,,,,,
S0702000723,居合団地東口,37.5167230448165,139.953044715923,0,1,,,,,,,
S070200072300000,居合団地東口,37.5167230448165,139.953044715923,Z007260,0,S0702000723,,,,,,
S0702000724,居合団地南口,37.5167490279102,139.949850535555,0,1,,,,,,,
S070200072400000,居合団地南口,37.5167490279102,139.949850535555,Z007270,0,S0702000724,,,,,,
S0702000725,新町（南会津町）,37.1993751986683,139.763109824902,0,1,,,,,,,
S070200072500000,新町（南会津町）,37.1993751986683,139.763109824902,Z007280,0,S0702000725,,,,,,
S0702000726,田島自動車学校前,37.1920929320464,139.759707664995,0,1,,,,,,,
S070200072600000,田島自動車学校前,37.1920929320464,139.759707664995,Z007290,0,S0702000726,,,,,,
S0702000727,油燈,37.1843419534296,139.755611139893,0,1,,,,,,,
S070200072700000,油燈,37.1843419534296,139.755611139893,Z007300,0,S0702000727,,,,,,
S0702000728,中荒井駅前,37.180140949602,139.751931083405,0,1,,,,,,,
S070200072800000,中荒井駅前,37.180140949602,139.751931083405,Z007310,0,S0702000728,,,,,,
S0702000729,中荒井タバコ屋前,37.1779362951942,139.750264656651,0,1,,,,,,,
S070200072900000,中荒井タバコ屋前,37.1779362951942,139.750264656651,Z007320,0,S0702000729,,,,,,
S0702000730,小桂橋,37.1748810106424,139.747070618154,0,1,,,,,,,
S070200073000000,小桂橋,37.1748810106424,139.747070618154,Z007330,0,S0702000730,,,,,,
S0702000731,金地橋,37.1674164597222,139.742974079864,0,1,,,,,,,
S070200073100000,金地橋,37.1674164597222,139.742974079864,Z007340,0,S0702000731,,,,,,
S0702000732,川島,37.1637188954942,139.740509177055,0,1,,,,,,,
S070200073200000,川島,37.1637188954942,139.740509177055,Z007350,0,S0702000732,,,,,,
S0702000733,上川島,37.1596915078592,139.738183166787,0,1,,,,,,,
S070200073300000,上川島,37.1596915078592,139.738183166787,Z007360,0,S0702000733,,,,,,
S0702000734,会津荒海駅前,37.1533987199475,139.734850399999,0,1,,,,,,,
S070200073400000,会津荒海駅前,37.1533987199475,139.734850399999,Z007370,0,S0702000734,,,,,,
S0702000735,荒海中学校前,37.1501178057174,139.733982567592,0,1,,,,,,,
S070200073500000,荒海中学校前,37.1501178057174,139.733982567592,Z007380,0,S0702000735,,,,,,
S0702000736,今泉,37.1426706237537,139.730441537923,0,1,,,,,,,
S070200073600000,今泉,37.1426706237537,139.730441537923,Z007390,0,S0702000736,,,,,,
S0702000737,糸沢,37.1307185321593,139.716415475352,0,1,,,,,,,
S070200073700000,糸沢,37.1307185321593,139.716415475352,Z007400,0,S0702000737,,,,,,
S0702000738,滝の下,37.122038898319,139.716033962261,0,1,,,,,,,
S070200073800000,滝の下,37.122038898319,139.716033962261,Z007410,0,S0702000738,,,,,,
S0702000739,羽塩,37.1179768140053,139.714957849788,0,1,,,,,,,
S070200073900000,羽塩,37.1179768140053,139.714957849788,Z007420,0,S0702000739,,,,,,
S0702000740,早坂,37.1119705805255,139.718881411619,0,1,,,,,,,
S070200074000000,早坂,37.1119705805255,139.718881411619,Z007430,0,S0702000740,,,,,,
S0702000741,滝原,37.092649510932,139.706313900566,0,1,,,,,,,
S070200074100000,滝原,37.092649510932,139.706313900566,Z007440,0,S0702000741,,,,,,
S0702000742,滝原上,37.0912780837536,139.703675293961,0,1,,,,,,,
S070200074200000,滝原上,37.0912780837536,139.703675293961,Z007450,0,S0702000742,,,,,,
S0702000743,会津高原尾瀬口駅前,37.0894640356111,139.703328184097,0,1,,,,,,,
S070200074300000,会津高原尾瀬口駅前,37.0894640356111,139.703328184097,Z007460,0,S0702000743,,,,,,
S0702000744,袋口,37.0837700843672,139.696697052551,0,1,,,,,,,
S070200074400000,袋口,37.0837700843672,139.696697052551,Z007470,0,S0702000744,,,,,,
S0702000745,舘岩番屋,37.0684838528856,139.61607945165,0,1,,,,,,,
S070200074500000,舘岩番屋,37.0684838528856,139.61607945165,Z007480,0,S0702000745,,,,,,
S0702000746,上岩下,37.0805656895533,139.604378478187,0,1,,,,,,,
S070200074600000,上岩下,37.0805656895533,139.604378478187,Z007490,0,S0702000746,,,,,,
S0702000747,下岩下,37.0828744224759,139.60163554412,0,1,,,,,,,
S070200074700000,下岩下,37.0828744224759,139.60163554412,Z007500,0,S0702000747,,,,,,
S0702000748,精舎,37.0880300112586,139.595351106417,0,1,,,,,,,
S070200074800000,精舎,37.0880300112586,139.595351106417,Z007510,0,S0702000748,,,,,,
S0702000749,井桁,37.0954076046076,139.590212304586,0,1,,,,,,,
S070200074900000,井桁,37.0954076046076,139.590212304586,Z007520,0,S0702000749,,,,,,
S0702000750,八総,37.0971782303587,139.589170642898,0,1,,,,,,,
S070200075000000,八総,37.0971782303587,139.589170642898,Z007530,0,S0702000750,,,,,,
S070200075000001,八総,37.0971782303587,139.589170642898,Z007531,0,S0702000750,,,,,,
S0702000751,高杖原,37.1067608249701,139.605557729606,0,1,,,,,,,
S070200075100000,高杖原,37.1067608249701,139.605557729606,Z007540,0,S0702000751,,,,,,
S070200075100001,高杖原,37.1067608249701,139.605557729606,Z007541,0,S0702000751,,,,,,
S0702000752,たかつえスキー場,37.1107623107674,139.615730311639,0,1,,,,,,,
S070200075200000,たかつえスキー場,37.1107623107674,139.615730311639,Z007550,0,S0702000752,,,,,,
S0702000753,森戸,37.0973690396551,139.581011589491,0,1,,,,,,,
S070200075300000,森戸,37.0973690396551,139.581011589491,Z007560,0,S0702000753,,,,,,
S0702000754,熨斗戸上,37.0926124826881,139.574067940734,0,1,,,,,,,
S070200075400000,熨斗戸上,37.0926124826881,139.574067940734,Z007570,0,S0702000754,,,,,,
S0702000755,熨斗戸下,37.0919093880145,139.571498742034,0,1,,,,,,,
S070200075500000,熨斗戸下,37.0919093880145,139.571498742034,Z007580,0,S0702000755,,,,,,
S0702000756,新田原,37.0887063181604,139.555041922916,0,1,,,,,,,
S070200075600000,新田原,37.0887063181604,139.555041922916,Z007590,0,S0702000756,,,,,,
S0702000757,鱒沢入口,37.0873348066939,139.54757732822,0,1,,,,,,,
S070200075700000,鱒沢入口,37.0873348066939,139.54757732822,Z007600,0,S0702000757,,,,,,
S0702000758,戸中,37.0853817596006,139.54007804096,0,1,,,,,,,
S070200075800000,戸中,37.0853817596006,139.54007804096,Z007610,0,S0702000758,,,,,,
S0702000759,舘岩観光案内所前,37.0917352060611,139.537751552728,0,1,,,,,,,
S070200075900000,舘岩観光案内所前,37.0917352060611,139.537751552728,Z007620,0,S0702000759,,,,,,
S0702000760,舘岩支所前,37.0922732792748,139.534105997379,0,1,,,,,,,
S070200076000000,舘岩支所前,37.0922732792748,139.534105997379,Z007630,0,S0702000760,,,,,,
S070200076000001,舘岩支所前,37.0922732792748,139.534105997379,Z007631,0,S0702000760,,,,,,
S0702000761,下の原,37.0908497985889,139.532856166723,0,1,,,,,,,
S070200076100000,下の原,37.0908497985889,139.532856166723,Z007640,0,S0702000761,,,,,,
S070200076100001,下の原,37.0908497985889,139.532856166723,Z007641,0,S0702000761,,,,,,
S0702000762,押戸,37.0850084040459,139.532543961628,0,1,,,,,,,
S070200076200000,押戸,37.0850084040459,139.532543961628,Z007650,0,S0702000762,,,,,,
S070200076200001,押戸,37.0850084040459,139.532543961628,Z007651,0,S0702000762,,,,,,
S0702000763,貝原向,37.0807553588387,139.530947067866,0,1,,,,,,,
S070200076300000,貝原向,37.0807553588387,139.530947067866,Z007660,0,S0702000763,,,,,,
S070200076300001,貝原向,37.0807553588387,139.530947067866,Z007661,0,S0702000763,,,,,,
S0702000764,角生,37.0750528274154,139.530009908279,0,1,,,,,,,
S070200076400000,角生,37.0750528274154,139.530009908279,Z007670,0,S0702000764,,,,,,
S070200076400001,角生,37.0750528274154,139.530009908279,Z007671,0,S0702000764,,,,,,
S0702000765,湯ノ花下,37.0702269268149,139.528413040892,0,1,,,,,,,
S070200076500000,湯ノ花下,37.0702269268149,139.528413040892,Z007680,0,S0702000765,,,,,,
S070200076500001,湯ノ花下,37.0702269268149,139.528413040892,Z007681,0,S0702000765,,,,,,
S0702000766,湯ノ花石湯前,37.0674754680231,139.52744102609,0,1,,,,,,,
S070200076600000,湯ノ花石湯前,37.0674754680231,139.52744102609,Z007690,0,S0702000766,,,,,,
S070200076600001,湯ノ花石湯前,37.0674754680231,139.52744102609,Z007691,0,S0702000766,,,,,,
S0702000767,湯ノ花清滝前,37.063665108057,139.527232885498,0,1,,,,,,,
S070200076700000,湯ノ花清滝前,37.063665108057,139.527232885498,Z007700,0,S0702000767,,,,,,
S0702000768,松戸原,37.0930110494034,139.534210121426,0,1,,,,,,,
S070200076800000,松戸原,37.0930110494034,139.534210121426,Z007710,0,S0702000768,,,,,,
S0702000769,松戸原農協前,37.0940785768425,139.530390945004,0,1,,,,,,,
S070200076900000,松戸原農協前,37.0940785768425,139.530390945004,Z007720,0,S0702000769,,,,,,
S0702000770,福渡,37.0992428792102,139.526050789874,0,1,,,,,,,
S070200077000000,福渡,37.0992428792102,139.526050789874,Z007730,0,S0702000770,,,,,,
S0702000771,前沢向,37.1035045106608,139.522300905064,0,1,,,,,,,
S070200077100000,前沢向,37.1035045106608,139.522300905064,Z007740,0,S0702000771,,,,,,
S0702000772,塩ノ原タバコ屋前,37.1130693803653,139.517752231284,0,1,,,,,,,
S070200077200000,塩ノ原タバコ屋前,37.1130693803653,139.517752231284,Z007750,0,S0702000772,,,,,,
S0702000773,塩ノ原,37.1142845081583,139.516606437156,0,1,,,,,,,
S070200077300000,塩ノ原,37.1142845081583,139.516606437156,Z007760,0,S0702000773,,,,,,
S0702000774,たのせ,37.1184245029443,139.505877970845,0,1,,,,,,,
S070200077400000,たのせ,37.1184245029443,139.505877970845,Z007770,0,S0702000774,,,,,,
S0702000775,木賊入口,37.1208720619967,139.50039220262,0,1,,,,,,,
S070200077500000,木賊入口,37.1208720619967,139.50039220262,Z007780,0,S0702000775,,,,,,
S0702000776,穴原タバコ屋前,37.1241355399611,139.496850679802,0,1,,,,,,,
S070200077600000,穴原タバコ屋前,37.1241355399611,139.496850679802,Z007790,0,S0702000776,,,,,,
S0702000777,耻風,37.1344903024301,139.494975358742,0,1,,,,,,,
S070200077700000,耻風,37.1344903024301,139.494975358742,Z007800,0,S0702000777,,,,,,
S0702000778,内川清水屋前,37.1431524945473,139.490635042558,0,1,,,,,,,
S070200077800000,内川清水屋前,37.1431524945473,139.490635042558,Z007810,0,S0702000778,,,,,,
S0702000779,内川,37.1447842292847,139.488621245777,0,1,,,,,,,
S070200077900000,内川,37.1447842292847,139.488621245777,Z007820,0,S0702000779,,,,,,
S0702000780,大原（南会津町）,37.1326932551661,139.474109118857,0,1,,,,,,,
S070200078000000,大原（南会津町）,37.1326932551661,139.474109118857,Z007830,0,S0702000780,,,,,,
S0702000781,小立岩,37.126478515377,139.46685306319,0,1,,,,,,,
S070200078100000,小立岩,37.126478515377,139.46685306319,Z007840,0,S0702000781,,,,,,
S0702000782,大桃下,37.1138407690131,139.454875473178,0,1,,,,,,,
S070200078200000,大桃下,37.1138407690131,139.454875473178,Z007850,0,S0702000782,,,,,,
S0702000783,大桃,37.1101085123511,139.453903503536,0,1,,,,,,,
S070200078300000,大桃,37.1101085123511,139.453903503536,Z007860,0,S0702000783,,,,,,
S0702000784,高畑スキー場,37.1017499392152,139.448626548889,0,1,,,,,,,
S070200078400000,高畑スキー場,37.1017499392152,139.448626548889,Z007870,0,S0702000784,,,,,,
S0702000785,あずき温泉,37.0803541688849,139.420609027591,0,1,,,,,,,
S070200078500000,あずき温泉,37.0803541688849,139.420609027591,Z007880,0,S0702000785,,,,,,
S0702000786,葭ヶ平,37.0660673570296,139.412277044082,0,1,,,,,,,
S070200078600000,葭ヶ平,37.0660673570296,139.412277044082,Z007890,0,S0702000786,,,,,,
S0702000787,森の温泉館アルザ前,37.0336139708995,139.397383941981,0,1,,,,,,,
S070200078700000,森の温泉館アルザ前,37.0336139708995,139.397383941981,Z007900,0,S0702000787,,,,,,
S0702000788,駒ヶ岳登山口,37.0284147735641,139.391620771124,0,1,,,,,,,
S070200078800000,駒ヶ岳登山口,37.0284147735641,139.391620771124,Z007910,0,S0702000788,,,,,,
S0702000789,桧枝岐番屋前,37.0268090176757,139.390197352166,0,1,,,,,,,
S070200078900000,桧枝岐番屋前,37.0268090176757,139.390197352166,Z007920,0,S0702000789,,,,,,
S0702000790,桧枝岐役場前,37.0245262429849,139.388322612976,0,1,,,,,,,
S070200079000000,桧枝岐役場前,37.0245262429849,139.388322612976,Z007930,0,S0702000790,,,,,,
S0702000791,桧枝岐中央,37.0220178028388,139.386725638887,0,1,,,,,,,
S070200079100000,桧枝岐中央,37.0220178028388,139.386725638887,Z007940,0,S0702000791,,,,,,
S0702000792,桧枝岐ますや前,37.0211150955384,139.385232748881,0,1,,,,,,,
S070200079200000,桧枝岐ますや前,37.0211150955384,139.385232748881,Z007950,0,S0702000792,,,,,,
S0702000793,上の原,37.019031949847,139.383219123144,0,1,,,,,,,
S070200079300000,上の原,37.019031949847,139.383219123144,Z007960,0,S0702000793,,,,,,
S0702000794,中土合公園前,37.0166189819616,139.381413828626,0,1,,,,,,,
S070200079400000,中土合公園前,37.0166189819616,139.381413828626,Z007970,0,S0702000794,,,,,,
S0702000795,ミニ尾瀬公園前,37.0110986578252,139.376761691397,0,1,,,,,,,
S070200079500000,ミニ尾瀬公園前,37.0110986578252,139.376761691397,Z007980,0,S0702000795,,,,,,
S0702000796,キリンテ,37.00238409324,139.36422841133,0,1,,,,,,,
S070200079600000,キリンテ,37.00238409324,139.36422841133,Z007990,0,S0702000796,,,,,,
S0702000797,実川荘前,36.9853630702716,139.348536053884,0,1,,,,,,,
S070200079700000,実川荘前,36.9853630702716,139.348536053884,Z008000,0,S0702000797,,,,,,
S0702000798,七入,36.9856234245225,139.346557039584,0,1,,,,,,,
S070200079800000,七入,36.9856234245225,139.346557039584,Z008010,0,S0702000798,,,,,,
S0702000799,尾瀬御池,36.9841818757137,139.304720302688,0,1,,,,,,,
S070200079900000,尾瀬御池,36.9841818757137,139.304720302688,Z008020,0,S0702000799,,,,,,
S0702000800,尾瀬沼山峠,36.9479015538177,139.334476446502,0,1,,,,,,,
S070200080000000,尾瀬沼山峠,36.9479015538177,139.334476446502,Z008030,0,S0702000800,,,,,,
S0702000801,駅前四ッ角（田島駅）,37.2015366101758,139.773664404382,0,1,,,,,,,
S070200080100000,駅前四ッ角（田島駅）,37.2015366101758,139.773664404382,Z003510,0,S0702000801,,,,,,
S0702000802,今生,37.2020310323895,139.755540886757,0,1,,,,,,,
S070200080200000,今生,37.2020310323895,139.755540886757,Z008040,0,S0702000802,,,,,,
S0702000803,桧沢橋,37.2029076043926,139.751513403096,0,1,,,,,,,
S070200080300000,桧沢橋,37.2029076043926,139.751513403096,Z008050,0,S0702000803,,,,,,
S0702000804,下塩江,37.2046521281977,139.746860931372,0,1,,,,,,,
S070200080400000,下塩江,37.2046521281977,139.746860931372,Z008060,0,S0702000804,,,,,,
S0702000805,上塩江,37.2049384637232,139.741583578688,0,1,,,,,,,
S070200080500000,上塩江,37.2049384637232,139.741583578688,Z008070,0,S0702000805,,,,,,
S0702000806,下福米沢,37.2042092846889,139.736410430779,0,1,,,,,,,
S070200080600000,下福米沢,37.2042092846889,139.736410430779,Z008080,0,S0702000806,,,,,,
S0702000807,上福米沢,37.2036016070945,139.730473451821,0,1,,,,,,,
S070200080700000,上福米沢,37.2036016070945,139.730473451821,Z008090,0,S0702000807,,,,,,
S0702000808,福米沢学校前,37.2035581495326,139.727070958618,0,1,,,,,,,
S070200080800000,福米沢学校前,37.2035581495326,139.727070958618,Z008100,0,S0702000808,,,,,,
S0702000809,帯沢入口,37.203271609654,139.720647894131,0,1,,,,,,,
S070200080900000,帯沢入口,37.203271609654,139.720647894131,Z008110,0,S0702000809,,,,,,
S0702000810,金井沢下村,37.2027507550124,139.716238562084,0,1,,,,,,,
S070200081000000,金井沢下村,37.2027507550124,139.716238562084,Z008120,0,S0702000810,,,,,,
S0702000811,金井沢中村,37.201691756816,139.711447342087,0,1,,,,,,,
S070200081100000,金井沢中村,37.201691756816,139.711447342087,Z008130,0,S0702000811,,,,,,
S0702000812,金井沢上,37.2002248040148,139.705961754097,0,1,,,,,,,
S070200081200000,金井沢上,37.2002248040148,139.705961754097,Z008140,0,S0702000812,,,,,,
S0702000813,豆渡,37.1982456204114,139.692872654492,0,1,,,,,,,
S070200081300000,豆渡,37.1982456204114,139.692872654492,Z008150,0,S0702000813,,,,,,
S0702000814,黒沢,37.1970997786449,139.685373330067,0,1,,,,,,,
S070200081400000,黒沢,37.1970997786449,139.685373330067,Z008160,0,S0702000814,,,,,,
S0702000815,十本木,37.1939055260683,139.676797800453,0,1,,,,,,,
S070200081500000,十本木,37.1939055260683,139.676797800453,Z008170,0,S0702000815,,,,,,
S0702000816,針生入口,37.1885065050826,139.660028608393,0,1,,,,,,,
S070200081600000,針生入口,37.1885065050826,139.660028608393,Z008180,0,S0702000816,,,,,,
S0702000817,針生みどり屋前,37.1886627098714,139.658396792277,0,1,,,,,,,
S070200081700000,針生みどり屋前,37.1886627098714,139.658396792277,Z008190,0,S0702000817,,,,,,
S070200081700001,針生みどり屋前,37.1886627098714,139.658396792277,Z008191,0,S0702000817,,,,,,
S0702000818,針生堀割,37.1939312271912,139.657459127551,0,1,,,,,,,
S070200081800000,針生堀割,37.1939312271912,139.657459127551,Z008200,0,S0702000818,,,,,,
S070200081800001,針生堀割,37.1939312271912,139.657459127551,Z008201,0,S0702000818,,,,,,
S0702000819,駒止湿原入口,37.1996857884728,139.655653456976,0,1,,,,,,,
S070200081900000,駒止湿原入口,37.1996857884728,139.655653456976,Z008210,0,S0702000819,,,,,,
S0702000820,針生宮の下,37.187872871682,139.658848180048,0,1,,,,,,,
S070200082000000,針生宮の下,37.187872871682,139.658848180048,Z008220,0,S0702000820,,,,,,
S0702000821,青少年旅行村前,37.1866837221316,139.6565220391,0,1,,,,,,,
S070200082100000,青少年旅行村前,37.1866837221316,139.6565220391,Z008230,0,S0702000821,,,,,,
S0702000822,台鞍スキー場入口,37.1846349953928,139.637357058404,0,1,,,,,,,
S070200082200000,台鞍スキー場入口,37.1846349953928,139.637357058404,Z008240,0,S0702000822,,,,,,
S0702000823,東,37.205595043422,139.565695378033,0,1,,,,,,,
S070200082300000,東,37.205595043422,139.565695378033,Z008250,0,S0702000823,,,,,,
S0702000824,中小屋,37.2161925783429,139.549099046139,0,1,,,,,,,
S070200082400000,中小屋,37.2161925783429,139.549099046139,Z008260,0,S0702000824,,,,,,
S0702000825,山口温泉きらら２８９,37.221582504325,139.542085491531,0,1,,,,,,,
S070200082500000,山口温泉きらら２８９,37.221582504325,139.542085491531,Z008270,0,S0702000825,,,,,,
S0702000826,山口営業所,37.2222854813591,139.537919138507,0,1,,,,,,,
S070200082600000,山口営業所,37.2222854813591,139.537919138507,Z008280,0,S0702000826,,,,,,
S0702000827,南郷小学校入口,37.2205321445212,139.534933356097,0,1,,,,,,,
S070200082700000,南郷小学校入口,37.2205321445212,139.534933356097,Z008290,0,S0702000827,,,,,,
S0702000828,新藤歯科医院前,37.2180584301606,139.533753012475,0,1,,,,,,,
S070200082800000,新藤歯科医院前,37.2180584301606,139.533753012475,Z008300,0,S0702000828,,,,,,
S0702000829,大新田,37.2112448743209,139.530975779085,0,1,,,,,,,
S070200082900000,大新田,37.2112448743209,139.530975779085,Z008310,0,S0702000829,,,,,,
S0702000830,水根沢,37.2050302703629,139.531496855306,0,1,,,,,,,
S070200083000000,水根沢,37.2050302703629,139.531496855306,Z008320,0,S0702000830,,,,,,
S0702000831,木伏,37.2002998771935,139.531705389141,0,1,,,,,,,
S070200083100000,木伏,37.2002998771935,139.531705389141,Z008330,0,S0702000831,,,,,,
S0702000832,青柳入口,37.1945105476794,139.530664075533,0,1,,,,,,,
S070200083200000,青柳入口,37.1945105476794,139.530664075533,Z008340,0,S0702000832,,,,,,
S0702000833,青柳,37.1933040212894,139.52733107456,0,1,,,,,,,
S070200083300000,青柳,37.1933040212894,139.52733107456,Z008350,0,S0702000833,,,,,,
S0702000834,古町温泉入口,37.184554994698,139.529484076397,0,1,,,,,,,
S070200083400000,古町温泉入口,37.184554994698,139.529484076397,Z008360,0,S0702000834,,,,,,
S0702000835,古町局前,37.18265414422,139.528789777141,0,1,,,,,,,
S070200083500000,古町局前,37.18265414422,139.528789777141,Z008370,0,S0702000835,,,,,,
S0702000836,古町下,37.1794687192293,139.528685765791,0,1,,,,,,,
S070200083600000,古町下,37.1794687192293,139.528685765791,Z008380,0,S0702000836,,,,,,
S0702000837,古町農協前,37.1779237389228,139.528303924199,0,1,,,,,,,
S070200083700000,古町農協前,37.1779237389228,139.528303924199,Z008390,0,S0702000837,,,,,,
S0702000838,古町タバコ屋前,37.1768561393234,139.527991499306,0,1,,,,,,,
S070200083800000,古町タバコ屋前,37.1768561393234,139.527991499306,Z008400,0,S0702000838,,,,,,
S0702000839,小塩（南会津町）,37.1801976908786,139.521984899837,0,1,,,,,,,
S070200083900000,小塩（南会津町）,37.1801976908786,139.521984899837,Z008410,0,S0702000839,,,,,,
S0702000840,小塩公民館前,37.1786526966251,139.520804513453,0,1,,,,,,,
S070200084000000,小塩公民館前,37.1786526966251,139.520804513453,Z008420,0,S0702000840,,,,,,
S0702000841,小野木クリニック前,37.1707803093459,139.522783878233,0,1,,,,,,,
S070200084100000,小野木クリニック前,37.1707803093459,139.522783878233,Z008430,0,S0702000841,,,,,,
S0702000842,宮沢公民館前,37.1692699390044,139.5161872734,0,1,,,,,,,
S070200084200000,宮沢公民館前,37.1692699390044,139.5161872734,Z008440,0,S0702000842,,,,,,
S0702000843,宮沢清水屋前,37.1663188518196,139.515388864484,0,1,,,,,,,
S070200084300000,宮沢清水屋前,37.1663188518196,139.515388864484,Z008450,0,S0702000843,,,,,,
S0702000844,上白沢,37.1577260579109,139.517507139789,0,1,,,,,,,
S070200084400000,上白沢,37.1577260579109,139.517507139789,Z008460,0,S0702000844,,,,,,
S0702000845,浜野,37.15417595578,139.50979961003,0,1,,,,,,,
S070200084500000,浜野,37.15417595578,139.50979961003,Z008470,0,S0702000845,,,,,,
S0702000846,内川局前,37.1474402394651,139.491155635219,0,1,,,,,,,
S070200084600000,内川局前,37.1474402394651,139.491155635219,Z008480,0,S0702000846,,,,,,
S0702000847,塩生,37.2478875802177,139.874487230161,0,1,,,,,,,
S070200084700000,塩生,37.2478875802177,139.874487230161,Z008490,0,S0702000847,,,,,,
S0702000848,張平,37.2434698695009,139.887055834215,0,1,,,,,,,
S070200084800000,張平,37.2434698695009,139.887055834215,Z008500,0,S0702000848,,,,,,
S0702000849,大松川下,37.2362485646223,139.895354088681,0,1,,,,,,,
S070200084900000,大松川下,37.2362485646223,139.895354088681,Z008510,0,S0702000849,,,,,,
S0702000850,宮内（下郷町）,37.2341827787916,139.893375181484,0,1,,,,,,,
S070200085000000,宮内（下郷町）,37.2341827787916,139.893375181484,Z008520,0,S0702000850,,,,,,
S0702000851,上の村旭田郵便局前,37.2315615586737,139.894937672419,0,1,,,,,,,
S070200085100000,上の村旭田郵便局前,37.2315615586737,139.894937672419,Z008530,0,S0702000851,,,,,,
S0702000852,木令,37.2258937560677,139.894590739993,0,1,,,,,,,
S070200085200000,木令,37.2258937560677,139.894590739993,Z008540,0,S0702000852,,,,,,
S0702000853,杉の沢入口,37.2235763071347,139.895250514133,0,1,,,,,,,
S070200085300000,杉の沢入口,37.2235763071347,139.895250514133,Z008550,0,S0702000853,,,,,,
S0702000854,南倉沢タバコ屋前,37.2136644318344,139.910076128178,0,1,,,,,,,
S070200085400000,南倉沢タバコ屋前,37.2136644318344,139.910076128178,Z008560,0,S0702000854,,,,,,
S0702000855,南倉沢,37.2130569046245,139.912749545239,0,1,,,,,,,
S070200085500000,南倉沢,37.2130569046245,139.912749545239,Z008570,0,S0702000855,,,,,,
S0702000856,日吉団地入口,37.478748920993,139.909820887541,0,1,,,,,,,
S070200085600000,日吉団地入口,37.478748920993,139.909820887541,Z008580,0,S0702000856,,,,,,
S0702000857,飯寺東,37.4778809176479,139.907494731805,0,1,,,,,,,
S070200085700000,飯寺東,37.4778809176479,139.907494731805,Z008590,0,S0702000857,,,,,,
S0702000858,高田橋,37.476665696471,139.903293747761,0,1,,,,,,,
S070200085800000,高田橋,37.476665696471,139.903293747761,Z008600,0,S0702000858,,,,,,
S0702000859,小沢平,37.006296657979,139.252744434256,0,1,,,,,,,
S070200085900000,小沢平,37.006296657979,139.252744434256,Z008610,0,S0702000859,,,,,,
S0702000860,平ヶ岳入口,37.0369617844095,139.252951338377,0,1,,,,,,,
S070200086000000,平ヶ岳入口,37.0369617844095,139.252951338377,Z008620,0,S0702000860,,,,,,
S0702000861,鷹ノ巣,37.0444523772431,139.257221472162,0,1,,,,,,,
S070200086100000,鷹ノ巣,37.0444523772431,139.257221472162,Z008630,0,S0702000861,,,,,,
S0702000862,小白沢,37.0602231815871,139.252741951321,0,1,,,,,,,
S070200086200000,小白沢,37.0602231815871,139.252741951321,Z008640,0,S0702000862,,,,,,
S0702000863,尾瀬口船着場,37.0751606962436,139.245658518437,0,1,,,,,,,
S070200086300000,尾瀬口船着場,37.0751606962436,139.245658518437,Z008650,0,S0702000863,,,,,,
S0702000864,一の丁白山軒前,37.4919941666729,139.917527970907,0,1,,,,,,,
S070200086400000,一の丁白山軒前,37.4919941666729,139.917527970907,Z008660,0,S0702000864,,,,,,
S0702000865,烏橋,37.4921937404909,139.914229624531,0,1,,,,,,,
S070200086500000,烏橋,37.4921937404909,139.914229624531,Z008670,0,S0702000865,,,,,,
S0702000866,御旗町,37.4923499246624,139.911417350896,0,1,,,,,,,
S070200086600000,御旗町,37.4923499246624,139.911417350896,Z008680,0,S0702000866,,,,,,
S0702000867,柳原,37.4935736902417,139.907875921992,0,1,,,,,,,
S070200086700000,柳原,37.4935736902417,139.907875921992,Z008690,0,S0702000867,,,,,,
S0702000868,柳原下,37.4953789859904,139.904056711601,0,1,,,,,,,
S070200086800000,柳原下,37.4953789859904,139.904056711601,Z008700,0,S0702000868,,,,,,
S0702000869,鍛冶屋敷,37.497991453108,139.898293181072,0,1,,,,,,,
S070200086900000,鍛冶屋敷,37.497991453108,139.898293181072,Z008710,0,S0702000869,,,,,,
S0702000870,小見別,37.5006473310957,139.89325875466,0,1,,,,,,,
S070200087000000,小見別,37.5006473310957,139.89325875466,Z008720,0,S0702000870,,,,,,
S0702000871,蟹川,37.5007426511526,139.884335880197,0,1,,,,,,,
S070200087100000,蟹川,37.5007426511526,139.884335880197,Z008730,0,S0702000871,,,,,,
S0702000872,川崎,37.5052386161643,139.879648562449,0,1,,,,,,,
S070200087200000,川崎,37.5052386161643,139.879648562449,Z008740,0,S0702000872,,,,,,
S0702000873,真宮南,37.5114271503149,139.877356801149,0,1,,,,,,,
S070200087300000,真宮南,37.5114271503149,139.877356801149,Z008750,0,S0702000873,,,,,,
S0702000874,真宮中,37.5161401793789,139.876870513404,0,1,,,,,,,
S070200087400000,真宮中,37.5161401793789,139.876870513404,Z008760,0,S0702000874,,,,,,
S0702000875,真宮コミセン前,37.5183187451813,139.875689955578,0,1,,,,,,,
S070200087500000,真宮コミセン前,37.5183187451813,139.875689955578,Z008770,0,S0702000875,,,,,,
S0702000876,真宮北,37.5210701542492,139.873814984599,0,1,,,,,,,
S070200087600000,真宮北,37.5210701542492,139.873814984599,Z008780,0,S0702000876,,,,,,
S0702000877,鈴渕入口,37.5208530156112,139.865343475926,0,1,,,,,,,
S070200087700000,鈴渕入口,37.5208530156112,139.865343475926,Z008790,0,S0702000877,,,,,,
S0702000878,田村山北,37.5198026709671,139.859059323962,0,1,,,,,,,
S070200087800000,田村山北,37.5198026709671,139.859059323962,Z008800,0,S0702000878,,,,,,
S0702000879,出尻,37.5194207285628,139.856837303864,0,1,,,,,,,
S070200087900000,出尻,37.5194207285628,139.856837303864,Z008810,0,S0702000879,,,,,,
S0702000880,舘,37.5169817442322,139.85631662608,0,1,,,,,,,
S070200088000000,舘,37.5169817442322,139.85631662608,Z008820,0,S0702000880,,,,,,
S0702000881,石原,37.5142043811771,139.863052305687,0,1,,,,,,,
S070200088100000,石原,37.5142043811771,139.863052305687,Z008830,0,S0702000881,,,,,,
S0702000882,中里［会津若松市］,37.5134840242715,139.866038201992,0,1,,,,,,,
S070200088200000,中里［会津若松市］,37.5134840242715,139.866038201992,Z008840,0,S0702000882,,,,,,
S0702000883,白山沼公園,37.5099340919295,139.868052087093,0,1,,,,,,,
S070200088300000,白山沼公園,37.5099340919295,139.868052087093,Z008850,0,S0702000883,,,,,,
S0702000884,下荒井,37.5042489385586,139.868191226209,0,1,,,,,,,
S070200088400000,下荒井,37.5042489385586,139.868191226209,Z008860,0,S0702000884,,,,,,
S0702000885,荒館農協前,37.5062018043416,139.865309431172,0,1,,,,,,,
S070200088500000,荒館農協前,37.5062018043416,139.865309431172,Z008870,0,S0702000885,,,,,,
S0702000886,安良田入口,37.5056288452558,139.859372450615,0,1,,,,,,,
S070200088600000,安良田入口,37.5056288452558,139.859372450615,Z008880,0,S0702000886,,,,,,
S0702000887,東本田,37.5044222430672,139.851699532293,0,1,,,,,,,
S070200088700000,東本田,37.5044222430672,139.851699532293,Z008890,0,S0702000887,,,,,,
S0702000888,本田河原,37.5041704520168,139.847012433147,0,1,,,,,,,
S070200088800000,本田河原,37.5041704520168,139.847012433147,Z008900,0,S0702000888,,,,,,
S0702000889,銀山橋,37.5032763054914,139.83871455234,0,1,,,,,,,
S070200088900000,銀山橋,37.5032763054914,139.83871455234,Z008910,0,S0702000889,,,,,,
S0702000890,中田前,37.5027120308838,139.833055326094,0,1,,,,,,,
S070200089000000,中田前,37.5027120308838,139.833055326094,Z008920,0,S0702000890,,,,,,
S0702000891,沖中田,37.5052204340402,139.832534420517,0,1,,,,,,,
S070200089100000,沖中田,37.5052204340402,139.832534420517,Z008930,0,S0702000891,,,,,,
S0702000892,阿久津［会津美里町］,37.5087617461812,139.833923031018,0,1,,,,,,,
S070200089200000,阿久津［会津美里町］,37.5087617461812,139.833923031018,Z008940,0,S0702000892,,,,,,
S0702000893,新屋敷,37.5184221669768,139.833679550852,0,1,,,,,,,
S070200089300000,新屋敷,37.5184221669768,139.833679550852,Z008950,0,S0702000893,,,,,,
S0702000894,新鶴中学校入口,37.5184047816478,139.832186620084,0,1,,,,,,,
S070200089400000,新鶴中学校入口,37.5184047816478,139.832186620084,Z008960,0,S0702000894,,,,,,
S0702000895,新鶴駅前,37.5183960565414,139.829582670074,0,1,,,,,,,
S070200089500000,新鶴駅前,37.5183960565414,139.829582670074,Z008970,0,S0702000895,,,,,,
S0702000896,そばの目入口,37.5188907540557,139.827221732258,0,1,,,,,,,
S070200089600000,そばの目入口,37.5188907540557,139.827221732258,Z008980,0,S0702000896,,,,,,
S0702000897,梁田,37.5190989353405,139.819791784167,0,1,,,,,,,
S070200089700000,梁田,37.5190989353405,139.819791784167,Z008990,0,S0702000897,,,,,,
S0702000898,小沢別,37.5204268467437,139.815694841046,0,1,,,,,,,
S070200089800000,小沢別,37.5204268467437,139.815694841046,Z009000,0,S0702000898,,,,,,
S0702000899,沼田,37.5214161975058,139.808438453681,0,1,,,,,,,
S070200089900000,沼田,37.5214161975058,139.808438453681,Z009010,0,S0702000899,,,,,,
S0702000900,新鶴ゆきわり荘前,37.5129622182057,139.807154227391,0,1,,,,,,,
S070200090000000,新鶴ゆきわり荘前,37.5129622182057,139.807154227391,Z009020,0,S0702000900,,,,,,
S0702000901,佐賀瀬川,37.5069992919034,139.805869886406,0,1,,,,,,,
S070200090100000,佐賀瀬川,37.5069992919034,139.805869886406,Z009030,0,S0702000901,,,,,,
S0702000902,新鶴温泉,37.507737182097,139.812848439532,0,1,,,,,,,
S070200090200000,新鶴温泉,37.507737182097,139.812848439532,Z009040,0,S0702000902,,,,,,
S0702000903,ホタルの森公園前,37.4986245904826,139.871073190292,0,1,,,,,,,
S070200090300000,ホタルの森公園前,37.4986245904826,139.871073190292,Z009050,0,S0702000903,,,,,,
S0702000904,北会津中学校,37.4966456439772,139.871559352151,0,1,,,,,,,
S070200090400000,北会津中学校,37.4966456439772,139.871559352151,Z009060,0,S0702000904,,,,,,
S0702000905,北会津支所,37.4910733657812,139.873989962433,0,1,,,,,,,
S070200090500000,北会津支所,37.4910733657812,139.873989962433,Z009070,0,S0702000905,,,,,,
S0702000906,高田橋南,37.474261430649,139.902773068379,0,1,,,,,,,
S070200090600000,高田橋南,37.474261430649,139.902773068379,Z009080,0,S0702000906,,,,,,
S0702000907,飯寺ニュータウン西,37.4715360459093,139.903814774028,0,1,,,,,,,
S070200090700000,飯寺ニュータウン西,37.4715360459093,139.903814774028,Z009090,0,S0702000907,,,,,,
S0702000908,工業団地入口,37.4635942731559,139.908745285802,0,1,,,,,,,
S070200090800000,工業団地入口,37.4635942731559,139.908745285802,Z009100,0,S0702000908,,,,,,
S0702000909,漆器団地組合前,37.4610424852042,139.910030018829,0,1,,,,,,,
S070200090900000,漆器団地組合前,37.4610424852042,139.910030018829,Z009110,0,S0702000909,,,,,,
S0702000910,黒川（会津美里町）,37.4575617224621,139.896732672329,0,1,,,,,,,
S070200091000000,黒川（会津美里町）,37.4575617224621,139.896732672329,Z009120,0,S0702000910,,,,,,
S0702000911,新町東,37.4565461418059,139.893052469175,0,1,,,,,,,
S070200091100000,新町東,37.4565461418059,139.893052469175,Z009130,0,S0702000911,,,,,,
S0702000912,瀬戸町,37.4537165409012,139.890622245741,0,1,,,,,,,
S070200091200000,瀬戸町,37.4537165409012,139.890622245741,Z009140,0,S0702000912,,,,,,
S0702000913,インフォメーションセンター前,37.452727054308,139.890101501218,0,1,,,,,,,
S070200091300000,インフォメーションセンター前,37.452727054308,139.890101501218,Z009150,0,S0702000913,,,,,,
S0702000914,本郷局前,37.4507914871404,139.889511361577,0,1,,,,,,,
S070200091400000,本郷局前,37.4507914871404,139.889511361577,Z009160,0,S0702000914,,,,,,
S0702000915,本郷庁舎入口,37.4498800717126,139.886386663048,0,1,,,,,,,
S070200091500000,本郷庁舎入口,37.4498800717126,139.886386663048,Z009170,0,S0702000915,,,,,,
S0702000916,本郷車庫,37.4494113378876,139.884442401657,0,1,,,,,,,
S070200091600000,本郷車庫,37.4494113378876,139.884442401657,Z009180,0,S0702000916,,,,,,
S0702000917,材木町二丁目,37.4834619694613,139.910445618637,0,1,,,,,,,
S070200091700000,材木町二丁目,37.4834619694613,139.910445618637,Z009190,0,S0702000917,,,,,,
S0702000918,桜町入口,37.481752062898,139.909299959185,0,1,,,,,,,
S070200091800000,桜町入口,37.481752062898,139.909299959185,Z009200,0,S0702000918,,,,,,
S0702000919,飯寺,37.4782628109347,139.906904485462,0,1,,,,,,,
S070200091900000,飯寺,37.4782628109347,139.906904485462,Z009210,0,S0702000919,,,,,,
S0702000920,三本松東,37.4736363768214,139.895863948735,0,1,,,,,,,
S070200092000000,三本松東,37.4736363768214,139.895863948735,Z009230,0,S0702000920,,,,,,
S0702000921,米塚,37.4661285278195,139.897496103342,0,1,,,,,,,
S070200092100000,米塚,37.4661285278195,139.897496103342,Z009240,0,S0702000921,,,,,,
S0702000922,上米塚,37.4635940615262,139.896628236566,0,1,,,,,,,
S070200092200000,上米塚,37.4635940615262,139.896628236566,Z009250,0,S0702000922,,,,,,
S0702000923,新町北,37.4591240080543,139.894024491969,0,1,,,,,,,
S070200092300000,新町北,37.4591240080543,139.894024491969,Z009260,0,S0702000923,,,,,,
S0702000924,新町（会津美里町）,37.4568412376083,139.89239278815,0,1,,,,,,,
S070200092400000,新町（会津美里町）,37.4568412376083,139.89239278815,Z009270,0,S0702000924,,,,,,
S0702000925,雄国萩平駐車場,37.6240727251998,139.955990917029,0,1,,,,,,,
S070200092500000,雄国萩平駐車場,37.6240727251998,139.955990917029,Z009280,0,S0702000925,,,,,,
S0702000926,金沢峠,37.6202543835603,139.995744735777,0,1,,,,,,,
S070200092600000,金沢峠,37.6202543835603,139.995744735777,Z009290,0,S0702000926,,,,,,
S0702000930,高坂,37.4167179304921,140.041791950456,0,1,,,,,,,
S070200093000000,高坂,37.4167179304921,140.041791950456,Z002390,0,S0702000930,,,,,,
S0702000932,休石,37.3917931447578,140.219486674109,0,1,,,,,,,
S070200093200000,休石,37.3917931447578,140.219486674109,Z005920,0,S0702000932,,,,,,
S0702000933,希望ヶ丘入口,37.4077570917826,140.340448115505,0,1,,,,,,,
S070200093300000,希望ヶ丘入口,37.4077570917826,140.340448115505,Z005930,0,S0702000933,,,,,,
S0702000934,郡山ビッグハート,37.4076703852565,140.345586581642,0,1,,,,,,,
S070200093400000,郡山ビッグハート,37.4076703852565,140.345586581642,Z005940,0,S0702000934,,,,,,
S0702000935,福島放送前,37.4074101832091,140.356280149977,0,1,,,,,,,
S070200093500000,福島放送前,37.4074101832091,140.356280149977,Z005950,0,S0702000935,,,,,,
S0702000936,太田西ノ内病院前,37.4084171751964,140.365168254347,0,1,,,,,,,
S070200093600000,太田西ノ内病院前,37.4084171751964,140.365168254347,Z005960,0,S0702000936,,,,,,
S0702000937,郡山駅前,37.3989654626376,140.388152891826,0,1,,,,,,,
S070200093700000,郡山駅前,37.3989654626376,140.388152891826,Z005970,0,S0702000937,,,,,,
S0702000938,じげんプラザ前,37.4645216877078,139.833994506637,0,1,,,,,,,
S070200093800000,じげんプラザ前,37.4645216877078,139.833994506637,Z004120,0,S0702000938,,,,,,
S070200093800001,じげんプラザ前,37.4645216877078,139.833994506637,Z004121,0,S0702000938,,,,,,
S0702000939,会津西病院前,37.4729245509777,139.890343606637,0,1,,,,,,,
S070200093900000,会津西病院前,37.4729245509777,139.890343606637,Z009220,0,S0702000939,,,,,,
